{"nodes":[{"label":"Pitfield Street North,Hoxton","x":7910.38427734375,"y":8305.0,"id":"465","attributes":{"lon":"-0.08249","lat":"51.53558"},"color":"rgb(0,0,0)","size":10.0},{"label":"Warren Street Station, Euston","x":-1781.25439453125,"y":5179.0,"id":"239","attributes":{"lon":"-0.138019","lat":"51.524438"},"color":"rgb(0,0,0)","size":10.0},{"label":"Union Grove, Wandsworth Road","x":-1074.919677734375,"y":-9244.0,"id":"602","attributes":{"lon":"-0.133972","lat":"51.472993"},"color":"rgb(0,0,0)","size":10.0},{"label":"Kensington Gore, Knightsbridge","x":-8873.7490234375,"y":-1273.0,"id":"258","attributes":{"lon":"-0.178656","lat":"51.501432"},"color":"rgb(0,0,0)","size":10.0},{"label":"Westferry Circus, Canary Wharf","x":17460.4765625,"y":-75.0,"id":"811","attributes":{"lon":"-0.027772","lat":"51.505703"},"color":"rgb(0,0,0)","size":10.0},{"label":"Hoxton Station, Hoxton","x":9060.380859375,"y":7046.0,"id":"539","attributes":{"lon":"-0.075901","lat":"51.531091"},"color":"rgb(0,0,0)","size":10.0},{"label":"Jubilee Street, Stepney","x":13026.4677734375,"y":2806.0,"id":"450","attributes":{"lon":"-0.053177","lat":"51.515975"},"color":"rgb(0,0,0)","size":10.0},{"label":"Eagle Wharf Road, Hoxton","x":6049.86328125,"y":7738.0,"id":"574","attributes":{"lon":"-0.09315","lat":"51.53356"},"color":"rgb(0,0,0)","size":10.0},{"label":"Merchant Street, Bow","x":17493.8125,"y":5780.0,"id":"497","attributes":{"lon":"-0.027581","lat":"51.526578"},"color":"rgb(0,0,0)","size":10.0},{"label":"Ilchester Place, Kensington","x":-13080.5166015625,"y":-1466.0,"id":"145","attributes":{"lon":"-0.202759","lat":"51.500743"},"color":"rgb(0,0,0)","size":10.0},{"label":"Clarence Walk, Stockwell","x":142.97103881835938,"y":-9877.0,"id":"630","attributes":{"lon":"-0.126994","lat":"51.470732"},"color":"rgb(0,0,0)","size":10.0},{"label":"Sumner Place, South Kensington","x":-8011.3818359375,"y":-4138.0,"id":"172","attributes":{"lon":"-0.173715","lat":"51.491211"},"color":"rgb(0,0,0)","size":10.0},{"label":"Hurlingham Park, Parsons Green","x":-13408.8125,"y":-10046.0,"id":"774","attributes":{"lon":"-0.20464","lat":"51.470131"},"color":"rgb(0,0,0)","size":10.0},{"label":"South Audley Street, Mayfair","x":-4098.5283203125,"y":914.0,"id":"289","attributes":{"lon":"-0.151296","lat":"51.50923"},"color":"rgb(0,0,0)","size":10.0},{"label":"Grove End Road, St. John\u0027s Wood","x":-8544.580078125,"y":6989.0,"id":"312","attributes":{"lon":"-0.17677","lat":"51.530889"},"color":"rgb(0,0,0)","size":10.0},{"label":"Grant Road West, Clapham Junction","x":-8152.05517578125,"y":-11647.0,"id":"1000","attributes":{"lon":"-0.174521","lat":"51.464416"},"color":"rgb(0,0,0)","size":10.0},{"label":"Jubilee Crescent, Cubitt Town","x":20991.279296875,"y":-3530.0,"id":"447","attributes":{"lon":"-0.007542","lat":"51.493381"},"color":"rgb(0,0,0)","size":10.0},{"label":"Bow Church Station, Bow","x":19043.31640625,"y":6226.0,"id":"495","attributes":{"lon":"-0.018703","lat":"51.528169"},"color":"rgb(0,0,0)","size":10.0},{"label":"Here East South, Queen Elizabeth Olympic Park","x":18712.751953125,"y":11379.0,"id":"816","attributes":{"lon":"-0.020597","lat":"51.546532"},"color":"rgb(0,0,0)","size":10.0},{"label":"Podium, Queen Elizabeth Olympic Park","x":20232.583984375,"y":9186.0,"id":"789","attributes":{"lon":"-0.011889","lat":"51.538718"},"color":"rgb(0,0,0)","size":10.0},{"label":"Malet Street, Bloomsbury","x":-456.89862060546875,"y":4406.0,"id":"12","attributes":{"lon":"-0.130431","lat":"51.52168"},"color":"rgb(0,0,0)","size":10.0},{"label":"Stainsby Road , Poplar","x":18194.73828125,"y":2652.0,"id":"716","attributes":{"lon":"-0.023565","lat":"51.515427"},"color":"rgb(0,0,0)","size":10.0},{"label":"Albert Gardens, Stepney","x":13967.7236328125,"y":2050.0,"id":"483","attributes":{"lon":"-0.047784","lat":"51.51328"},"color":"rgb(0,0,0)","size":10.0},{"label":"Southwark Street, Bankside","x":5143.86279296875,"y":-158.0,"id":"803","attributes":{"lon":"-0.098341","lat":"51.505409"},"color":"rgb(0,0,0)","size":10.0},{"label":"Boston Place, Marylebone","x":-6018.7392578125,"y":4639.0,"id":"45","attributes":{"lon":"-0.162298","lat":"51.522511"},"color":"rgb(0,0,0)","size":10.0},{"label":"Blythe Road, Olympia","x":-14955.1748046875,"y":-2536.0,"id":"525","attributes":{"lon":"-0.2135","lat":"51.496927"},"color":"rgb(0,0,0)","size":10.0},{"label":"Princes Square, Bayswater","x":-11089.4453125,"y":2108.0,"id":"261","attributes":{"lon":"-0.191351","lat":"51.513489"},"color":"rgb(0,0,0)","size":10.0},{"label":"Concert Hall Approach 2, South Bank","x":2143.29296875,"y":-288.0,"id":"336","attributes":{"lon":"-0.115533","lat":"51.504942"},"color":"rgb(0,0,0)","size":10.0},{"label":"Silverthorne Road, Battersea","x":-3533.56494140625,"y":-9280.0,"id":"640","attributes":{"lon":"-0.148059","lat":"51.472865"},"color":"rgb(0,0,0)","size":10.0},{"label":"Wapping High Street, Wapping","x":10444.6015625,"y":-299.0,"id":"134","attributes":{"lon":"-0.06797","lat":"51.504904"},"color":"rgb(0,0,0)","size":10.0},{"label":"Pancras Road, King\u0027s Cross","x":-274.51171875,"y":7896.0,"id":"34","attributes":{"lon":"-0.129386","lat":"51.534123"},"color":"rgb(0,0,0)","size":10.0},{"label":"St. George\u0027s Square, Pimlico","x":-1365.16796875,"y":-4975.0,"id":"294","attributes":{"lon":"-0.135635","lat":"51.488226"},"color":"rgb(0,0,0)","size":10.0},{"label":"Calshot Street , King\u0027s Cross","x":1875.2103271484375,"y":7121.0,"id":"70","attributes":{"lon":"-0.117069","lat":"51.53136"},"color":"rgb(0,0,0)","size":10.0},{"label":"Pennington Street, Wapping","x":10961.91796875,"y":743.0,"id":"490","attributes":{"lon":"-0.065006","lat":"51.508622"},"color":"rgb(0,0,0)","size":10.0},{"label":"Sandilands Road, Walham Green","x":-11168.333984375,"y":-9071.0,"id":"769","attributes":{"lon":"-0.191803","lat":"51.473611"},"color":"rgb(0,0,0)","size":10.0},{"label":"North Audley Street, Mayfair","x":-4508.505859375,"y":1946.0,"id":"180","attributes":{"lon":"-0.153645","lat":"51.512911"},"color":"rgb(0,0,0)","size":10.0},{"label":"Victory Place, Walworth","x":6261.3974609375,"y":-3691.0,"id":"820","attributes":{"lon":"-0.091938","lat":"51.492807"},"color":"rgb(0,0,0)","size":10.0},{"label":"Antill Road, Mile End","x":15767.681640625,"y":6241.0,"id":"518","attributes":{"lon":"-0.037471","lat":"51.528224"},"color":"rgb(0,0,0)","size":10.0},{"label":"Shoreditch Court, Haggerston","x":10032.87890625,"y":9288.0,"id":"698","attributes":{"lon":"-0.070329","lat":"51.539083"},"color":"rgb(0,0,0)","size":10.0},{"label":"St. John\u0027s Wood Church, The Regent\u0027s Park","x":-6929.27783203125,"y":6888.0,"id":"247","attributes":{"lon":"-0.167515","lat":"51.530529"},"color":"rgb(0,0,0)","size":10.0},{"label":"South Quay East, Canary Wharf","x":19471.271484375,"y":-1125.0,"id":"494","attributes":{"lon":"-0.016251","lat":"51.50196"},"color":"rgb(0,0,0)","size":10.0},{"label":"Grafton Street, Mayfair","x":-2736.996826171875,"y":1128.0,"id":"53","attributes":{"lon":"-0.143495","lat":"51.509992"},"color":"rgb(0,0,0)","size":10.0},{"label":"Great Marlborough St, Soho","x":-1724.53125,"y":2439.0,"id":"159","attributes":{"lon":"-0.137694","lat":"51.514667"},"color":"rgb(0,0,0)","size":10.0},{"label":"Sadlers Sports Centre, Finsbury","x":4943.4990234375,"y":5300.0,"id":"78","attributes":{"lon":"-0.099489","lat":"51.524868"},"color":"rgb(0,0,0)","size":10.0},{"label":"Thurtle Road, Haggerston","x":9762.00390625,"y":8080.0,"id":"463","attributes":{"lon":"-0.071881","lat":"51.534776"},"color":"rgb(0,0,0)","size":10.0},{"label":"Duke Street Hill, London Bridge","x":7077.51318359375,"y":93.0,"id":"732","attributes":{"lon":"-0.087262","lat":"51.506304"},"color":"rgb(0,0,0)","size":10.0},{"label":"Ram Street, Wandsworth","x":-11231.5146484375,"y":-13576.0,"id":"766","attributes":{"lon":"-0.192165","lat":"51.457529"},"color":"rgb(0,0,0)","size":10.0},{"label":"Gaywood  Street, Elephant \u0026 Castle","x":4122.49609375,"y":-2782.0,"id":"549","attributes":{"lon":"-0.104193","lat":"51.49605"},"color":"rgb(0,0,0)","size":10.0},{"label":"Frampton Street, Paddington","x":-8255.9033203125,"y":4875.0,"id":"238","attributes":{"lon":"-0.175116","lat":"51.523353"},"color":"rgb(0,0,0)","size":10.0},{"label":"Harriet Street, Knightsbridge","x":-5502.470703125,"y":-1607.0,"id":"368","attributes":{"lon":"-0.15934","lat":"51.500241"},"color":"rgb(0,0,0)","size":10.0},{"label":"Wood Street, Guildhall","x":5921.58154296875,"y":3095.0,"id":"127","attributes":{"lon":"-0.093885","lat":"51.517008"},"color":"rgb(0,0,0)","size":10.0},{"label":"Waterloo Station 3, Waterloo","x":2616.1025390625,"y":-611.0,"id":"154","attributes":{"lon":"-0.112824","lat":"51.503791"},"color":"rgb(0,0,0)","size":10.0},{"label":"Southampton Street, Strand","x":1062.93408203125,"y":1326.0,"id":"388","attributes":{"lon":"-0.121723","lat":"51.510701"},"color":"rgb(0,0,0)","size":10.0},{"label":"Gauden Road, Clapham","x":-540.15087890625,"y":-11485.0,"id":"808","attributes":{"lon":"-0.130908","lat":"51.464995"},"color":"rgb(0,0,0)","size":10.0},{"label":"Finsbury Leisure Centre, St. Luke\u0027s","x":5497.11767578125,"y":5620.0,"id":"107","attributes":{"lon":"-0.096317","lat":"51.526008"},"color":"rgb(0,0,0)","size":10.0},{"label":"Grosvenor Square, Mayfair","x":-3956.28369140625,"y":1738.0,"id":"348","attributes":{"lon":"-0.150481","lat":"51.51217"},"color":"rgb(0,0,0)","size":10.0},{"label":"Sheepcote Lane, Battersea","x":-6148.41748046875,"y":-9932.0,"id":"632","attributes":{"lon":"-0.163041","lat":"51.470538"},"color":"rgb(0,0,0)","size":10.0},{"label":"New North Road 1, Hoxton","x":7367.0634765625,"y":7006.0,"id":"327","attributes":{"lon":"-0.085603","lat":"51.53095"},"color":"rgb(0,0,0)","size":10.0},{"label":"Jubilee Plaza, Canary Wharf","x":18805.080078125,"y":-673.0,"id":"532","attributes":{"lon":"-0.020068","lat":"51.50357"},"color":"rgb(0,0,0)","size":10.0},{"label":"Wormwood Street, Liverpool Street","x":7922.25244140625,"y":2856.0,"id":"217","attributes":{"lon":"-0.082422","lat":"51.516154"},"color":"rgb(0,0,0)","size":10.0},{"label":"Wansey Street, Walworth","x":5327.12255859375,"y":-4181.0,"id":"79","attributes":{"lon":"-0.097291","lat":"51.491056"},"color":"rgb(0,0,0)","size":10.0},{"label":"Richmond Way, Shepherd\u0027s Bush","x":-15655.9248046875,"y":-1575.0,"id":"647","attributes":{"lon":"-0.217515","lat":"51.500353"},"color":"rgb(0,0,0)","size":10.0},{"label":"Howland Street, Fitzrovia","x":-1955.2637939453125,"y":4213.0,"id":"357","attributes":{"lon":"-0.139016","lat":"51.520994"},"color":"rgb(0,0,0)","size":10.0},{"label":"Gloucester Road Station, South Kensington","x":-9574.32421875,"y":-3304.0,"id":"405","attributes":{"lon":"-0.18267","lat":"51.494185"},"color":"rgb(0,0,0)","size":10.0},{"label":"Horseferry Road, Westminster","x":-461.61102294921875,"y":-3127.0,"id":"221","attributes":{"lon":"-0.130458","lat":"51.494816"},"color":"rgb(0,0,0)","size":10.0},{"label":"Concert Hall Approach 1, South Bank","x":2087.79150390625,"y":-260.0,"id":"334","attributes":{"lon":"-0.115851","lat":"51.505044"},"color":"rgb(0,0,0)","size":10.0},{"label":"Morie Street, Wandsworth","x":-10885.7646484375,"y":-12897.0,"id":"629","attributes":{"lon":"-0.190184","lat":"51.459953"},"color":"rgb(0,0,0)","size":10.0},{"label":"Burdett Road, Mile End","x":17222.06640625,"y":2868.0,"id":"460","attributes":{"lon":"-0.029138","lat":"51.516196"},"color":"rgb(0,0,0)","size":10.0},{"label":"Wenlock Road , Hoxton","x":5918.43994140625,"y":7018.0,"id":"42","attributes":{"lon":"-0.093903","lat":"51.530991"},"color":"rgb(0,0,0)","size":10.0},{"label":"Ashley Place, Victoria","x":-2292.286865234375,"y":-2751.0,"id":"177","attributes":{"lon":"-0.140947","lat":"51.49616"},"color":"rgb(0,0,0)","size":10.0},{"label":"Aberfeldy Street, Poplar","x":21319.923828125,"y":2125.0,"id":"554","attributes":{"lon":"-0.005659","lat":"51.513548"},"color":"rgb(0,0,0)","size":10.0},{"label":"Stephendale Road, Sands End","x":-10914.0390625,"y":-10581.0,"id":"723","attributes":{"lon":"-0.190346","lat":"51.46822"},"color":"rgb(0,0,0)","size":10.0},{"label":"Mostyn Grove, Bow","x":17858.412109375,"y":6890.0,"id":"470","attributes":{"lon":"-0.025492","lat":"51.530535"},"color":"rgb(0,0,0)","size":10.0},{"label":"Wellington Street , Strand","x":1425.962646484375,"y":1622.0,"id":"338","attributes":{"lon":"-0.119643","lat":"51.511756"},"color":"rgb(0,0,0)","size":10.0},{"label":"Charing Cross Hospital, Hammersmith","x":-15739.7001953125,"y":-5239.0,"id":"696","attributes":{"lon":"-0.217995","lat":"51.487285"},"color":"rgb(0,0,0)","size":10.0},{"label":"Longford Street, The Regent\u0027s Park","x":-2839.6220703125,"y":5504.0,"id":"76","attributes":{"lon":"-0.144083","lat":"51.525595"},"color":"rgb(0,0,0)","size":10.0},{"label":"Furze Green, Bow","x":18582.201171875,"y":3728.0,"id":"499","attributes":{"lon":"-0.021345","lat":"51.519265"},"color":"rgb(0,0,0)","size":10.0},{"label":"Geraldine Street, Elephant \u0026 Castle","x":3807.115234375,"y":-2760.0,"id":"297","attributes":{"lon":"-0.106","lat":"51.496127"},"color":"rgb(0,0,0)","size":10.0},{"label":"Rathbone Street, Fitzrovia","x":-1258.702880859375,"y":3419.0,"id":"306","attributes":{"lon":"-0.135025","lat":"51.518162"},"color":"rgb(0,0,0)","size":10.0},{"label":"Great Dover Street, The Borough","x":6696.33349609375,"y":-2408.0,"id":"61","attributes":{"lon":"-0.089446","lat":"51.497382"},"color":"rgb(0,0,0)","size":10.0},{"label":"Stanley Grove, Battersea","x":-4244.08837890625,"y":-9949.0,"id":"690","attributes":{"lon":"-0.15213","lat":"51.470475"},"color":"rgb(0,0,0)","size":10.0},{"label":"Gwendwr Road, West Kensington","x":-14190.89453125,"y":-4190.0,"id":"770","attributes":{"lon":"-0.209121","lat":"51.491026"},"color":"rgb(0,0,0)","size":10.0},{"label":"Stanhope Gate, Mayfair","x":-3988.572265625,"y":250.0,"id":"380","attributes":{"lon":"-0.150666","lat":"51.506864"},"color":"rgb(0,0,0)","size":10.0},{"label":"Waterloo Station 1, Waterloo","x":2434.58837890625,"y":-545.0,"id":"374","attributes":{"lon":"-0.113864","lat":"51.504027"},"color":"rgb(0,0,0)","size":10.0},{"label":"Hollybush Gardens, Bethnal Green","x":12336.015625,"y":6068.0,"id":"578","attributes":{"lon":"-0.057133","lat":"51.527607"},"color":"rgb(0,0,0)","size":10.0},{"label":"Parson\u0027s Green , Parson\u0027s Green","x":-12561.1064453125,"y":-9293.0,"id":"596","attributes":{"lon":"-0.199783","lat":"51.472817"},"color":"rgb(0,0,0)","size":10.0},{"label":"Naval Row, Blackwall","x":21087.62109375,"y":844.0,"id":"538","attributes":{"lon":"-0.00699","lat":"51.508981"},"color":"rgb(0,0,0)","size":10.0},{"label":"Broadwick Street, Soho","x":-1355.568603515625,"y":2163.0,"id":"260","attributes":{"lon":"-0.13558","lat":"51.513684"},"color":"rgb(0,0,0)","size":10.0},{"label":"Palissy Street, Shoreditch","x":9400.0224609375,"y":5700.0,"id":"322","attributes":{"lon":"-0.073955","lat":"51.526293"},"color":"rgb(0,0,0)","size":10.0},{"label":"Bolsover Street, Fitzrovia","x":-2757.591552734375,"y":4921.0,"id":"28","attributes":{"lon":"-0.143613","lat":"51.523518"},"color":"rgb(0,0,0)","size":10.0},{"label":"Barons Court Station, West Kensington","x":-15232.158203125,"y":-4417.0,"id":"707","attributes":{"lon":"-0.215087","lat":"51.490217"},"color":"rgb(0,0,0)","size":10.0},{"label":"Eccleston Place, Victoria","x":-3457.64306640625,"y":-3370.0,"id":"167","attributes":{"lon":"-0.147624","lat":"51.49395"},"color":"rgb(0,0,0)","size":10.0},{"label":"Park Street, Bankside","x":6118.978515625,"y":1.0,"id":"10","attributes":{"lon":"-0.092754","lat":"51.505974"},"color":"rgb(0,0,0)","size":10.0},{"label":"Tachbrook Street, Victoria","x":-1841.46826171875,"y":-3886.0,"id":"148","attributes":{"lon":"-0.138364","lat":"51.492111"},"color":"rgb(0,0,0)","size":10.0},{"label":"Stamford Street, South Bank","x":2828.683837890625,"y":-113.0,"id":"197","attributes":{"lon":"-0.111606","lat":"51.505569"},"color":"rgb(0,0,0)","size":10.0},{"label":"High Holborn , Covent Garden","x":521.3583984375,"y":2876.0,"id":"358","attributes":{"lon":"-0.124826","lat":"51.516226"},"color":"rgb(0,0,0)","size":10.0},{"label":"Brunswick Square, Bloomsbury","x":926.972900390625,"y":5043.0,"id":"11","attributes":{"lon":"-0.122502","lat":"51.523951"},"color":"rgb(0,0,0)","size":10.0},{"label":"Golden Lane, Barbican","x":5818.607421875,"y":4424.0,"id":"54","attributes":{"lon":"-0.094475","lat":"51.521747"},"color":"rgb(0,0,0)","size":10.0},{"label":"Chancery Lane, Holborn","x":2889.595703125,"y":2328.0,"id":"82","attributes":{"lon":"-0.111257","lat":"51.514274"},"color":"rgb(0,0,0)","size":10.0},{"label":"Woodstock Grove, Shepherd\u0027s Bush","x":-15635.853515625,"y":-542.0,"id":"613","attributes":{"lon":"-0.2174","lat":"51.504038"},"color":"rgb(0,0,0)","size":10.0},{"label":"New Globe Walk, Bankside","x":5475.64990234375,"y":397.0,"id":"9","attributes":{"lon":"-0.09644","lat":"51.507385"},"color":"rgb(0,0,0)","size":10.0},{"label":"Red Lion Square, Holborn","x":1516.7197265625,"y":3776.0,"id":"23","attributes":{"lon":"-0.119123","lat":"51.519435"},"color":"rgb(0,0,0)","size":10.0},{"label":"Speakers\u0027 Corner 1, Hyde Park","x":-5604.57275390625,"y":1775.0,"id":"407","attributes":{"lon":"-0.159925","lat":"51.512301"},"color":"rgb(0,0,0)","size":10.0},{"label":"Eversholt Street , Camden Town","x":-1567.1025390625,"y":7583.0,"id":"131","attributes":{"lon":"-0.136792","lat":"51.533005"},"color":"rgb(0,0,0)","size":10.0},{"label":"Howick Place, Westminster","x":-1905.8709716796875,"y":-2584.0,"id":"360","attributes":{"lon":"-0.138733","lat":"51.496753"},"color":"rgb(0,0,0)","size":10.0},{"label":"Millbank Tower, Pimlico","x":373.3544921875,"y":-3949.0,"id":"376","attributes":{"lon":"-0.125674","lat":"51.491884"},"color":"rgb(0,0,0)","size":10.0},{"label":"Westfield Eastern Access Road, Shepherd\u0027s Bush","x":-16027.6796875,"y":894.0,"id":"555","attributes":{"lon":"-0.219645","lat":"51.509159"},"color":"rgb(0,0,0)","size":10.0},{"label":"Finsbury Library , Finsbury","x":4104.17041015625,"y":5819.0,"id":"51","attributes":{"lon":"-0.104298","lat":"51.526717"},"color":"rgb(0,0,0)","size":10.0},{"label":"Bonny Street, Camden Town","x":-1926.81494140625,"y":9995.0,"id":"462","attributes":{"lon":"-0.138853","lat":"51.541603"},"color":"rgb(0,0,0)","size":10.0},{"label":"Great Titchfield Street, Fitzrovia","x":-2358.609375,"y":4005.0,"id":"81","attributes":{"lon":"-0.141327","lat":"51.520253"},"color":"rgb(0,0,0)","size":10.0},{"label":"East Ferry Road, Cubitt Town","x":19792.76171875,"y":-3224.0,"id":"455","attributes":{"lon":"-0.014409","lat":"51.49447"},"color":"rgb(0,0,0)","size":10.0},{"label":"Driffield Road, Old Ford","x":15786.0078125,"y":7900.0,"id":"521","attributes":{"lon":"-0.037366","lat":"51.534137"},"color":"rgb(0,0,0)","size":10.0},{"label":"Gunmakers Lane, Old Ford","x":16481.697265625,"y":8193.0,"id":"459","attributes":{"lon":"-0.03338","lat":"51.535179"},"color":"rgb(0,0,0)","size":10.0},{"label":"Lee Valley VeloPark, Queen Elizabeth Olympic Park","x":19564.47265625,"y":12175.0,"id":"786","attributes":{"lon":"-0.015717","lat":"51.549369"},"color":"rgb(0,0,0)","size":10.0},{"label":"Monier Road, Hackney Wick","x":18532.458984375,"y":9633.0,"id":"783","attributes":{"lon":"-0.02163","lat":"51.540311"},"color":"rgb(0,0,0)","size":10.0},{"label":"Windsor Terrace, Hoxton","x":6002.56494140625,"y":6502.0,"id":"30","attributes":{"lon":"-0.093421","lat":"51.529154"},"color":"rgb(0,0,0)","size":10.0},{"label":"Warwick Road, Olympia","x":-13521.2119140625,"y":-2596.0,"id":"274","attributes":{"lon":"-0.205284","lat":"51.496712"},"color":"rgb(0,0,0)","size":10.0},{"label":"Lower Marsh, Waterloo","x":2422.02197265625,"y":-1635.0,"id":"347","attributes":{"lon":"-0.113936","lat":"51.500139"},"color":"rgb(0,0,0)","size":10.0},{"label":"Embankment (Savoy), Strand","x":1529.9842529296875,"y":1026.0,"id":"309","attributes":{"lon":"-0.119047","lat":"51.509631"},"color":"rgb(0,0,0)","size":10.0},{"label":"Hampstead Road, Euston","x":-1818.25537109375,"y":5489.0,"id":"98","attributes":{"lon":"-0.138231","lat":"51.525542"},"color":"rgb(0,0,0)","size":10.0},{"label":"Webber Street , Southwark","x":4489.36474609375,"y":-1480.0,"id":"80","attributes":{"lon":"-0.102091","lat":"51.500693"},"color":"rgb(0,0,0)","size":10.0},{"label":"Houndsditch, Aldgate","x":8837.5029296875,"y":2378.0,"id":"779","attributes":{"lon":"-0.077178","lat":"51.514449"},"color":"rgb(0,0,0)","size":10.0},{"label":"Borough High Street, The Borough","x":5810.05517578125,"y":-1480.0,"id":"125","attributes":{"lon":"-0.094524","lat":"51.500694"},"color":"rgb(0,0,0)","size":10.0},{"label":"Grosvenor Crescent, Belgravia","x":-4429.79150390625,"y":-1295.0,"id":"207","attributes":{"lon":"-0.153194","lat":"51.501352"},"color":"rgb(0,0,0)","size":10.0},{"label":"Ethelburga Estate, Battersea Park","x":-6452.97705078125,"y":-8039.0,"id":"658","attributes":{"lon":"-0.164786","lat":"51.477292"},"color":"rgb(0,0,0)","size":10.0},{"label":"Manresa Road, Chelsea","x":-7534.5576171875,"y":-5349.0,"id":"529","attributes":{"lon":"-0.170983","lat":"51.486892"},"color":"rgb(0,0,0)","size":10.0},{"label":"Hansard Mews, Holland Park","x":-15357.9970703125,"y":-608.0,"id":"527","attributes":{"lon":"-0.215808","lat":"51.503802"},"color":"rgb(0,0,0)","size":10.0},{"label":"Harrowby Street, Marylebone","x":-6351.9228515625,"y":3197.0,"id":"367","attributes":{"lon":"-0.164207","lat":"51.517372"},"color":"rgb(0,0,0)","size":10.0},{"label":"Kennington Lane Rail Bridge, Vauxhall","x":928.71826171875,"y":-5503.0,"id":"270","attributes":{"lon":"-0.122492","lat":"51.486343"},"color":"rgb(0,0,0)","size":10.0},{"label":"Ashley Crescent, Battersea","x":-4264.68359375,"y":-10871.0,"id":"670","attributes":{"lon":"-0.152248","lat":"51.467185"},"color":"rgb(0,0,0)","size":10.0},{"label":"Broadcasting House, Marylebone","x":-2864.929443359375,"y":3406.0,"id":"6","attributes":{"lon":"-0.144228","lat":"51.518117"},"color":"rgb(0,0,0)","size":10.0},{"label":"Montserrat Road , Putney","x":-15312.966796875,"y":-11984.0,"id":"709","attributes":{"lon":"-0.21555","lat":"51.463211"},"color":"rgb(0,0,0)","size":10.0},{"label":"St. Chad\u0027s Street, King\u0027s Cross","x":1193.8338623046875,"y":6756.0,"id":"4","attributes":{"lon":"-0.120973","lat":"51.530059"},"color":"rgb(0,0,0)","size":10.0},{"label":"Alma Road, Wandsworth","x":-9947.126953125,"y":-13447.0,"id":"724","attributes":{"lon":"-0.184806","lat":"51.457991"},"color":"rgb(0,0,0)","size":10.0},{"label":"Albert Square, Stockwell","x":1668.039794921875,"y":-8236.0,"id":"802","attributes":{"lon":"-0.118256","lat":"51.47659"},"color":"rgb(0,0,0)","size":10.0},{"label":"Victoria \u0026 Albert Museum, South Kensington","x":-7888.16162109375,"y":-2824.0,"id":"781","attributes":{"lon":"-0.173009","lat":"51.495898"},"color":"rgb(0,0,0)","size":10.0},{"label":"Paddington Green, Paddington","x":-8164.62158203125,"y":3992.0,"id":"370","attributes":{"lon":"-0.174593","lat":"51.520205"},"color":"rgb(0,0,0)","size":10.0},{"label":"Green Street, Mayfair","x":-5170.16015625,"y":1768.0,"id":"138","attributes":{"lon":"-0.157436","lat":"51.512276"},"color":"rgb(0,0,0)","size":10.0},{"label":"Milroy Walk, South Bank","x":3765.7509765625,"y":357.0,"id":"195","attributes":{"lon":"-0.106237","lat":"51.507244"},"color":"rgb(0,0,0)","size":10.0},{"label":"Mudchute DLR, Cubitt Town","x":19762.56640625,"y":-4297.0,"id":"586","attributes":{"lon":"-0.014582","lat":"51.490645"},"color":"rgb(0,0,0)","size":10.0},{"label":"Museum of London, Barbican","x":5465.8759765625,"y":3323.0,"id":"126","attributes":{"lon":"-0.096496","lat":"51.517821"},"color":"rgb(0,0,0)","size":10.0},{"label":"Tavistock Place, Bloomsbury","x":751.21826171875,"y":5688.0,"id":"89","attributes":{"lon":"-0.123509","lat":"51.52625"},"color":"rgb(0,0,0)","size":10.0},{"label":"Blythe Road West, Shepherd\u0027s Bush","x":-16402.2265625,"y":-1764.0,"id":"657","attributes":{"lon":"-0.221791","lat":"51.49968"},"color":"rgb(0,0,0)","size":10.0},{"label":"Tyers Gate, Bermondsey","x":7793.6220703125,"y":-1425.0,"id":"314","attributes":{"lon":"-0.083159","lat":"51.500889"},"color":"rgb(0,0,0)","size":10.0},{"label":"Santos Road, Wandsworth","x":-12739.6533203125,"y":-13708.0,"id":"767","attributes":{"lon":"-0.200806","lat":"51.457059"},"color":"rgb(0,0,0)","size":10.0},{"label":"Vincent Square, Westminster","x":-1590.8389892578125,"y":-3360.0,"id":"299","attributes":{"lon":"-0.136928","lat":"51.493985"},"color":"rgb(0,0,0)","size":10.0},{"label":"British Museum, Bloomsbury","x":547.1892700195312,"y":3676.0,"id":"24","attributes":{"lon":"-0.124678","lat":"51.51908"},"color":"rgb(0,0,0)","size":10.0},{"label":"Rodney Street, Angel","x":2352.732421875,"y":7252.0,"id":"59","attributes":{"lon":"-0.114333","lat":"51.531825"},"color":"rgb(0,0,0)","size":10.0},{"label":"Earnshaw Street , Covent Garden","x":-134.71084594726562,"y":2846.0,"id":"244","attributes":{"lon":"-0.128585","lat":"51.516118"},"color":"rgb(0,0,0)","size":10.0},{"label":"Rectory Square, Stepney","x":14737.9375,"y":3477.0,"id":"561","attributes":{"lon":"-0.043371","lat":"51.518369"},"color":"rgb(0,0,0)","size":10.0},{"label":"Great Tower Street, Monument","x":7823.29248046875,"y":1266.0,"id":"199","attributes":{"lon":"-0.082989","lat":"51.510484"},"color":"rgb(0,0,0)","size":10.0},{"label":"Waterloo Bridge, South Bank","x":2470.89111328125,"y":-173.0,"id":"377","attributes":{"lon":"-0.113656","lat":"51.505354"},"color":"rgb(0,0,0)","size":10.0},{"label":"Cumberland Gate, Hyde Park","x":-5992.21044921875,"y":1733.0,"id":"304","attributes":{"lon":"-0.162146","lat":"51.512151"},"color":"rgb(0,0,0)","size":10.0},{"label":"Lambeth North Station, Waterloo","x":2754.50732421875,"y":-1915.0,"id":"284","attributes":{"lon":"-0.112031","lat":"51.49914"},"color":"rgb(0,0,0)","size":10.0},{"label":"LSBU (Borough Road), Elephant \u0026 Castle","x":4307.67578125,"y":-2026.0,"id":"262","attributes":{"lon":"-0.103132","lat":"51.498744"},"color":"rgb(0,0,0)","size":10.0},{"label":"Clapham Common North Side, Clapham Common","x":-5499.3291015625,"y":-12508.0,"id":"768","attributes":{"lon":"-0.159322","lat":"51.461343"},"color":"rgb(0,0,0)","size":10.0},{"label":"Watney Street, Shadwell","x":12417.34765625,"y":1562.0,"id":"552","attributes":{"lon":"-0.056667","lat":"51.511542"},"color":"rgb(0,0,0)","size":10.0},{"label":"Montpelier Street, Knightsbridge","x":-6572.5322265625,"y":-1987.0,"id":"292","attributes":{"lon":"-0.165471","lat":"51.498884"},"color":"rgb(0,0,0)","size":10.0},{"label":"Bell Street , Marylebone","x":-6637.2841796875,"y":4504.0,"id":"182","attributes":{"lon":"-0.165842","lat":"51.522029"},"color":"rgb(0,0,0)","size":10.0},{"label":"Greenland Road, Camden Town","x":-2428.59716796875,"y":9293.0,"id":"572","attributes":{"lon":"-0.141728","lat":"51.539099"},"color":"rgb(0,0,0)","size":10.0},{"label":"Poured Lines, Bankside","x":4306.80322265625,"y":202.0,"id":"230","attributes":{"lon":"-0.103137","lat":"51.506692"},"color":"rgb(0,0,0)","size":10.0},{"label":"Penywern Road, Earl\u0027s Court","x":-11267.119140625,"y":-4031.0,"id":"37","attributes":{"lon":"-0.192369","lat":"51.491593"},"color":"rgb(0,0,0)","size":10.0},{"label":"Jubilee Gardens, South Bank","x":1967.189208984375,"y":-374.0,"id":"252","attributes":{"lon":"-0.116542","lat":"51.504636"},"color":"rgb(0,0,0)","size":10.0},{"label":"Sopwith Way, Battersea Park","x":-3703.9091796875,"y":-6966.0,"id":"800","attributes":{"lon":"-0.149035","lat":"51.481121"},"color":"rgb(0,0,0)","size":10.0},{"label":"Somerset House, Strand","x":1779.21728515625,"y":1114.0,"id":"564","attributes":{"lon":"-0.117619","lat":"51.509943"},"color":"rgb(0,0,0)","size":10.0},{"label":"Philpot Street, Whitechapel","x":12072.8193359375,"y":2604.0,"id":"443","attributes":{"lon":"-0.058641","lat":"51.515256"},"color":"rgb(0,0,0)","size":10.0},{"label":"Park Lane, Mayfair","x":-4014.9267578125,"y":-153.0,"id":"733","attributes":{"lon":"-0.150817","lat":"51.505426"},"color":"rgb(0,0,0)","size":10.0},{"label":"Queen Street 1, Bank","x":6086.51513671875,"y":1565.0,"id":"101","attributes":{"lon":"-0.09294","lat":"51.511553"},"color":"rgb(0,0,0)","size":10.0},{"label":"Humbolt Road, Fulham","x":-14668.9404296875,"y":-6379.0,"id":"761","attributes":{"lon":"-0.21186","lat":"51.483217"},"color":"rgb(0,0,0)","size":10.0},{"label":"Cadogan Place, Knightsbridge","x":-5286.9228515625,"y":-3175.0,"id":"211","attributes":{"lon":"-0.158105","lat":"51.494645"},"color":"rgb(0,0,0)","size":10.0},{"label":"New North Road 2, Hoxton","x":7294.9814453125,"y":7059.0,"id":"328","attributes":{"lon":"-0.086016","lat":"51.53114"},"color":"rgb(0,0,0)","size":10.0},{"label":"Royal Avenue 2, Chelsea","x":-6039.68310546875,"y":-4454.0,"id":"280","attributes":{"lon":"-0.162418","lat":"51.490083"},"color":"rgb(0,0,0)","size":10.0},{"label":"Albert Bridge Road, Battersea Park","x":-6201.82421875,"y":-8852.0,"id":"710","attributes":{"lon":"-0.163347","lat":"51.474392"},"color":"rgb(0,0,0)","size":10.0},{"label":"Great Russell Street, Bloomsbury","x":-7.127281665802002,"y":3297.0,"id":"15","attributes":{"lon":"-0.127854","lat":"51.517727"},"color":"rgb(0,0,0)","size":10.0},{"label":"Denyer Street, Knightsbridge","x":-6507.955078125,"y":-3473.0,"id":"209","attributes":{"lon":"-0.165101","lat":"51.493583"},"color":"rgb(0,0,0)","size":10.0},{"label":"St. John\u0027s Wood Road, St. John\u0027s Wood","x":-8175.09375,"y":5981.0,"id":"286","attributes":{"lon":"-0.174653","lat":"51.527294"},"color":"rgb(0,0,0)","size":10.0},{"label":"Irene Road, Parsons Green","x":-12077.126953125,"y":-9028.0,"id":"619","attributes":{"lon":"-0.19701","lat":"51.473763"},"color":"rgb(0,0,0)","size":10.0},{"label":"Palace Gate, Kensington Gardens","x":-9876.2666015625,"y":-1102.0,"id":"404","attributes":{"lon":"-0.1844","lat":"51.502042"},"color":"rgb(0,0,0)","size":10.0},{"label":"Ladbroke Grove Central, Ladbroke Grove","x":-13632.3896484375,"y":1585.0,"id":"560","attributes":{"lon":"-0.205921","lat":"51.511624"},"color":"rgb(0,0,0)","size":10.0},{"label":"Westbourne Grove, Bayswater","x":-10895.5390625,"y":2680.0,"id":"105","attributes":{"lon":"-0.19024","lat":"51.515529"},"color":"rgb(0,0,0)","size":10.0},{"label":"Garnet Street, Shadwell","x":12679.1474609375,"y":694.0,"id":"453","attributes":{"lon":"-0.055167","lat":"51.508447"},"color":"rgb(0,0,0)","size":10.0},{"label":"Bermondsey Station, Bermondsey","x":11229.8251953125,"y":-2236.0,"id":"845","attributes":{"lon":"-0.063471","lat":"51.497995"},"color":"rgb(0,0,0)","size":10.0},{"label":"De Vere Gardens, Kensington","x":-9977.49609375,"y":-1187.0,"id":"36","attributes":{"lon":"-0.18498","lat":"51.501737"},"color":"rgb(0,0,0)","size":10.0},{"label":"Neville Gill Close, Wandsworth","x":-11760.6982421875,"y":-14354.0,"id":"684","attributes":{"lon":"-0.195197","lat":"51.454752"},"color":"rgb(0,0,0)","size":10.0},{"label":"Exhibition Road Museums 1, South Kensington","x":-8018.7119140625,"y":-2664.0,"id":"432","attributes":{"lon":"-0.173757","lat":"51.496471"},"color":"rgb(0,0,0)","size":10.0},{"label":"Blackfriars Station, St. Paul\u0027s","x":4317.1005859375,"y":1672.0,"id":"659","attributes":{"lon":"-0.103078","lat":"51.511934"},"color":"rgb(0,0,0)","size":10.0},{"label":"Elizabeth Bridge, Victoria","x":-3432.161376953125,"y":-3813.0,"id":"288","attributes":{"lon":"-0.147478","lat":"51.492369"},"color":"rgb(0,0,0)","size":10.0},{"label":"St. John\u0027s Road, Clapham Junction","x":-7064.8896484375,"y":-12214.0,"id":"764","attributes":{"lon":"-0.168292","lat":"51.462392"},"color":"rgb(0,0,0)","size":10.0},{"label":"Hop Exchange, The Borough","x":6290.1953125,"y":-377.0,"id":"194","attributes":{"lon":"-0.091773","lat":"51.504627"},"color":"rgb(0,0,0)","size":10.0},{"label":"Wandsworth Town Station, Wandsworth","x":-10404.578125,"y":-12642.0,"id":"621","attributes":{"lon":"-0.187427","lat":"51.460864"},"color":"rgb(0,0,0)","size":10.0},{"label":"Lindfield Street, Poplar","x":18735.44140625,"y":2183.0,"id":"469","attributes":{"lon":"-0.020467","lat":"51.513757"},"color":"rgb(0,0,0)","size":10.0},{"label":"Imperial Road, Sands End","x":-10378.572265625,"y":-8642.0,"id":"738","attributes":{"lon":"-0.187278","lat":"51.475142"},"color":"rgb(0,0,0)","size":10.0},{"label":"Allington Street, Victoria","x":-2640.654541015625,"y":-2554.0,"id":"826","attributes":{"lon":"-0.142943","lat":"51.496863"},"color":"rgb(0,0,0)","size":10.0},{"label":"Queen Victoria Street, St. Paul\u0027s","x":5300.9423828125,"y":1680.0,"id":"136","attributes":{"lon":"-0.097441","lat":"51.511961"},"color":"rgb(0,0,0)","size":10.0},{"label":"Nantes Close, Wandsworth","x":-9246.376953125,"y":-12343.0,"id":"623","attributes":{"lon":"-0.180791","lat":"51.46193"},"color":"rgb(0,0,0)","size":10.0},{"label":"William IV Street, Strand","x":534.7974243164062,"y":979.0,"id":"64","attributes":{"lon":"-0.124749","lat":"51.509462"},"color":"rgb(0,0,0)","size":10.0},{"label":"Chesilton Road, Fulham","x":-13624.53515625,"y":-8486.0,"id":"727","attributes":{"lon":"-0.205876","lat":"51.475698"},"color":"rgb(0,0,0)","size":10.0},{"label":"Theobald\u0027s Road , Holborn","x":1941.7073974609375,"y":4102.0,"id":"68","attributes":{"lon":"-0.116688","lat":"51.520596"},"color":"rgb(0,0,0)","size":10.0},{"label":"Leman Street, Aldgate","x":10170.236328125,"y":1793.0,"id":"202","attributes":{"lon":"-0.069542","lat":"51.512363"},"color":"rgb(0,0,0)","size":10.0},{"label":"Harford Street, Mile End","x":15454.744140625,"y":4373.0,"id":"550","attributes":{"lon":"-0.039264","lat":"51.521564"},"color":"rgb(0,0,0)","size":10.0},{"label":"Warwick Square, Pimlico","x":-2462.630859375,"y":-4518.0,"id":"178","attributes":{"lon":"-0.141923","lat":"51.489856"},"color":"rgb(0,0,0)","size":10.0},{"label":"Putney Bridge Station, Fulham","x":-14393.00390625,"y":-10415.0,"id":"607","attributes":{"lon":"-0.210279","lat":"51.468814"},"color":"rgb(0,0,0)","size":10.0},{"label":"Bramham Gardens, Earl\u0027s Court","x":-10922.2421875,"y":-4432.0,"id":"219","attributes":{"lon":"-0.190393","lat":"51.490163"},"color":"rgb(0,0,0)","size":10.0},{"label":"St. Katharine\u0027s Way, Tower","x":9995.703125,"y":-77.0,"id":"452","attributes":{"lon":"-0.070542","lat":"51.505697"},"color":"rgb(0,0,0)","size":10.0},{"label":"Sackville Street, Mayfair","x":-1925.5931396484375,"y":1143.0,"id":"318","attributes":{"lon":"-0.138846","lat":"51.510048"},"color":"rgb(0,0,0)","size":10.0},{"label":"Curlew Street, Shad Thames","x":9359.181640625,"y":-1035.0,"id":"298","attributes":{"lon":"-0.074189","lat":"51.502279"},"color":"rgb(0,0,0)","size":10.0},{"label":"Aylward Street, Stepney","x":13743.7978515625,"y":2709.0,"id":"715","attributes":{"lon":"-0.049067","lat":"51.51563"},"color":"rgb(0,0,0)","size":10.0},{"label":"Thornfield House, Poplar","x":18187.58203125,"y":1105.0,"id":"567","attributes":{"lon":"-0.023606","lat":"51.509913"},"color":"rgb(0,0,0)","size":10.0},{"label":"Hertford Road, De Beauvoir Town","x":8484.4228515625,"y":8781.0,"id":"748","attributes":{"lon":"-0.079201","lat":"51.537277"},"color":"rgb(0,0,0)","size":10.0},{"label":"Kensington Olympia Station, Olympia","x":-14255.99609375,"y":-2191.0,"id":"293","attributes":{"lon":"-0.209494","lat":"51.498157"},"color":"rgb(0,0,0)","size":10.0},{"label":"Finsbury Square , Moorgate","x":7361.65283203125,"y":4204.0,"id":"140","attributes":{"lon":"-0.085634","lat":"51.520962"},"color":"rgb(0,0,0)","size":10.0},{"label":"Manbre Road, Hammersmith","x":-16720.748046875,"y":-5671.0,"id":"599","attributes":{"lon":"-0.223616","lat":"51.485743"},"color":"rgb(0,0,0)","size":10.0},{"label":"Drayton Gardens, West Chelsea","x":-8998.19140625,"y":-5263.0,"id":"589","attributes":{"lon":"-0.179369","lat":"51.487196"},"color":"rgb(0,0,0)","size":10.0},{"label":"Chapel Place, Marylebone","x":-3384.164794921875,"y":2618.0,"id":"141","attributes":{"lon":"-0.147203","lat":"51.515308"},"color":"rgb(0,0,0)","size":10.0},{"label":"Islington Green, Angel","x":4373.12548828125,"y":8531.0,"id":"695","attributes":{"lon":"-0.102757","lat":"51.536384"},"color":"rgb(0,0,0)","size":10.0},{"label":"Barbican Centre, Barbican","x":6219.8583984375,"y":3947.0,"id":"275","attributes":{"lon":"-0.092176","lat":"51.520044"},"color":"rgb(0,0,0)","size":10.0},{"label":"Sidney Road, Stockwell","x":1534.3475341796875,"y":-10306.0,"id":"830","attributes":{"lon":"-0.119022","lat":"51.469202"},"color":"rgb(0,0,0)","size":10.0},{"label":"St. Mark\u0027s Road, North Kensington","x":-15020.1005859375,"y":3057.0,"id":"650","attributes":{"lon":"-0.213872","lat":"51.51687"},"color":"rgb(0,0,0)","size":10.0},{"label":"Guildhouse Street, Victoria","x":-2359.8310546875,"y":-3820.0,"id":"161","attributes":{"lon":"-0.141334","lat":"51.492345"},"color":"rgb(0,0,0)","size":10.0},{"label":"All Saints\u0027 Road, Portobello","x":-13430.455078125,"y":3666.0,"id":"643","attributes":{"lon":"-0.204764","lat":"51.519042"},"color":"rgb(0,0,0)","size":10.0},{"label":"Red Lion Street, Holborn","x":1965.79296875,"y":3441.0,"id":"436","attributes":{"lon":"-0.11655","lat":"51.51824"},"color":"rgb(0,0,0)","size":10.0},{"label":"Gloucester Avenue, Camden Town","x":-3375.61279296875,"y":8802.0,"id":"535","attributes":{"lon":"-0.147154","lat":"51.537349"},"color":"rgb(0,0,0)","size":10.0},{"label":"Teversham Lane, Stockwell","x":795.0260009765625,"y":-8359.0,"id":"669","attributes":{"lon":"-0.123258","lat":"51.476149"},"color":"rgb(0,0,0)","size":10.0},{"label":"Portugal Street, Holborn","x":2036.30419921875,"y":2516.0,"id":"147","attributes":{"lon":"-0.116146","lat":"51.514943"},"color":"rgb(0,0,0)","size":10.0},{"label":"Goldsmith\u0027s Row, Haggerston","x":10782.3232421875,"y":7263.0,"id":"534","attributes":{"lon":"-0.066035","lat":"51.531864"},"color":"rgb(0,0,0)","size":10.0},{"label":"Alderney Street, Pimlico","x":-2256.3330078125,"y":-5022.0,"id":"185","attributes":{"lon":"-0.140741","lat":"51.488057"},"color":"rgb(0,0,0)","size":10.0},{"label":"Sea Containers, South Bank","x":3663.474609375,"y":578.0,"id":"839","attributes":{"lon":"-0.106823","lat":"51.508033"},"color":"rgb(0,0,0)","size":10.0},{"label":"Ossulston Street, Somers Town","x":-81.30377197265625,"y":6543.0,"id":"797","attributes":{"lon":"-0.128279","lat":"51.5293"},"color":"rgb(0,0,0)","size":10.0},{"label":"Greycoat Street , Westminster","x":-1120.6473388671875,"y":-3191.0,"id":"353","attributes":{"lon":"-0.134234","lat":"51.494591"},"color":"rgb(0,0,0)","size":10.0},{"label":"Queen Street 2, Bank","x":6067.14208984375,"y":1479.0,"id":"579","attributes":{"lon":"-0.093051","lat":"51.511246"},"color":"rgb(0,0,0)","size":10.0},{"label":"Bishop\u0027s Bridge Road West, Bayswater","x":-10324.81640625,"y":2857.0,"id":"568","attributes":{"lon":"-0.18697","lat":"51.51616"},"color":"rgb(0,0,0)","size":10.0},{"label":"Kensington Church Street, Kensington","x":-11114.751953125,"y":-789.0,"id":"277","attributes":{"lon":"-0.191496","lat":"51.503157"},"color":"rgb(0,0,0)","size":10.0},{"label":"Dickens Square, Borough","x":5916.69482421875,"y":-2574.0,"id":"317","attributes":{"lon":"-0.093913","lat":"51.496791"},"color":"rgb(0,0,0)","size":10.0},{"label":"Belford House, Haggerston","x":10050.1572265625,"y":8607.0,"id":"699","attributes":{"lon":"-0.07023","lat":"51.536654"},"color":"rgb(0,0,0)","size":10.0},{"label":"Smugglers Way, Wandsworth","x":-11154.1962890625,"y":-12581.0,"id":"665","attributes":{"lon":"-0.191722","lat":"51.461083"},"color":"rgb(0,0,0)","size":10.0},{"label":"Natural History Museum, South Kensington","x":-8947.2275390625,"y":-2910.0,"id":"378","attributes":{"lon":"-0.179077","lat":"51.495592"},"color":"rgb(0,0,0)","size":10.0},{"label":"Albert Embankment, Vauxhall","x":873.9149169921875,"y":-4356.0,"id":"100","attributes":{"lon":"-0.122806","lat":"51.490435"},"color":"rgb(0,0,0)","size":10.0},{"label":"Putney Rail Station, Putney","x":-15483.3115234375,"y":-12683.0,"id":"694","attributes":{"lon":"-0.216526","lat":"51.460717"},"color":"rgb(0,0,0)","size":10.0},{"label":"Charlotte Terrace, Angel","x":2634.07958984375,"y":8533.0,"id":"697","attributes":{"lon":"-0.112721","lat":"51.536392"},"color":"rgb(0,0,0)","size":10.0},{"label":"Cromer Street, Bloomsbury","x":1440.7978515625,"y":6257.0,"id":"793","attributes":{"lon":"-0.119558","lat":"51.528279"},"color":"rgb(0,0,0)","size":10.0},{"label":"Pritchard\u0027s Road, Bethnal Green","x":11587.79296875,"y":7326.0,"id":"512","attributes":{"lon":"-0.06142","lat":"51.532091"},"color":"rgb(0,0,0)","size":10.0},{"label":"Hinde Street, Marylebone","x":-4208.48388671875,"y":3041.0,"id":"210","attributes":{"lon":"-0.151926","lat":"51.516814"},"color":"rgb(0,0,0)","size":10.0},{"label":"Hammersmith Road, Hammersmith","x":-16063.458984375,"y":-3562.0,"id":"595","attributes":{"lon":"-0.21985","lat":"51.493267"},"color":"rgb(0,0,0)","size":10.0},{"label":"Ingrave Street, Clapham Junction","x":-7763.19580078125,"y":-10796.0,"id":"744","attributes":{"lon":"-0.172293","lat":"51.467454"},"color":"rgb(0,0,0)","size":10.0},{"label":"Bishop\u0027s Avenue, Fulham","x":-15173.166015625,"y":-9232.0,"id":"681","attributes":{"lon":"-0.214749","lat":"51.473036"},"color":"rgb(0,0,0)","size":10.0},{"label":"Moorfields, Moorgate","x":6898.96630859375,"y":3673.0,"id":"215","attributes":{"lon":"-0.088285","lat":"51.519069"},"color":"rgb(0,0,0)","size":10.0},{"label":"Harcourt Terrace, West Brompton","x":-10400.5634765625,"y":-5050.0,"id":"757","attributes":{"lon":"-0.187404","lat":"51.487958"},"color":"rgb(0,0,0)","size":10.0},{"label":"Mallory Street, Marylebone","x":-6717.91845703125,"y":5351.0,"id":"208","attributes":{"lon":"-0.166304","lat":"51.525051"},"color":"rgb(0,0,0)","size":10.0},{"label":"World\u0027s End Place, West Chelsea","x":-9156.1435546875,"y":-6774.0,"id":"649","attributes":{"lon":"-0.180274","lat":"51.481805"},"color":"rgb(0,0,0)","size":10.0},{"label":"Drummond Street , Euston","x":-1437.9481201171875,"y":5989.0,"id":"20","attributes":{"lon":"-0.136052","lat":"51.527326"},"color":"rgb(0,0,0)","size":10.0},{"label":"St Martins Close, Camden Town","x":-1871.3134765625,"y":9207.0,"id":"604","attributes":{"lon":"-0.138535","lat":"51.538792"},"color":"rgb(0,0,0)","size":10.0},{"label":"Lancaster Gate , Bayswater","x":-9050.376953125,"y":1594.0,"id":"524","attributes":{"lon":"-0.179668","lat":"51.511654"},"color":"rgb(0,0,0)","size":10.0},{"label":"Abingdon Green, Westminster","x":321.34368896484375,"y":-2336.0,"id":"583","attributes":{"lon":"-0.125972","lat":"51.49764"},"color":"rgb(0,0,0)","size":10.0},{"label":"Seymour Place, Marylebone","x":-6257.6748046875,"y":4027.0,"id":"605","attributes":{"lon":"-0.163667","lat":"51.520331"},"color":"rgb(0,0,0)","size":10.0},{"label":"Charlbert Street, St. John\u0027s Wood","x":-7026.84130859375,"y":7946.0,"id":"7","attributes":{"lon":"-0.168074","lat":"51.5343"},"color":"rgb(0,0,0)","size":10.0},{"label":"Timber Lodge, Queen Elizabeth Olympic Park","x":19743.54296875,"y":11455.0,"id":"787","attributes":{"lon":"-0.014691","lat":"51.546805"},"color":"rgb(0,0,0)","size":10.0},{"label":"Blackfriars Road, Southwark","x":4061.933349609375,"y":-143.0,"id":"792","attributes":{"lon":"-0.10454","lat":"51.505461"},"color":"rgb(0,0,0)","size":10.0},{"label":"Tate Modern, Bankside","x":5062.53076171875,"y":211.0,"id":"810","attributes":{"lon":"-0.098807","lat":"51.506725"},"color":"rgb(0,0,0)","size":10.0},{"label":"River Street , Clerkenwell","x":3114.219482421875,"y":6505.0,"id":"1","attributes":{"lon":"-0.10997","lat":"51.529163"},"color":"rgb(0,0,0)","size":10.0},{"label":"Bermondsey Street, Bermondsey","x":8064.322265625,"y":-2276.0,"id":"321","attributes":{"lon":"-0.081608","lat":"51.497855"},"color":"rgb(0,0,0)","size":10.0},{"label":"Bonner Gate, Victoria Park","x":13652.3427734375,"y":7696.0,"id":"502","attributes":{"lon":"-0.049591","lat":"51.53341"},"color":"rgb(0,0,0)","size":10.0},{"label":"St. Bride Street, Holborn","x":3921.60888671875,"y":2549.0,"id":"703","attributes":{"lon":"-0.105344","lat":"51.515059"},"color":"rgb(0,0,0)","size":10.0},{"label":"South Park, Sands End","x":-11464.865234375,"y":-10905.0,"id":"636","attributes":{"lon":"-0.193502","lat":"51.467064"},"color":"rgb(0,0,0)","size":10.0},{"label":"New Inn Yard, Shoreditch","x":8476.2197265625,"y":5204.0,"id":"58","attributes":{"lon":"-0.079248","lat":"51.524526"},"color":"rgb(0,0,0)","size":10.0},{"label":"Bancroft Road, Bethnal Green","x":14066.5087890625,"y":5629.0,"id":"520","attributes":{"lon":"-0.047218","lat":"51.526041"},"color":"rgb(0,0,0)","size":10.0},{"label":"Canton Street, Poplar","x":17835.025390625,"y":1638.0,"id":"487","attributes":{"lon":"-0.025626","lat":"51.511811"},"color":"rgb(0,0,0)","size":10.0},{"label":"Import Dock, Canary Wharf","x":19434.79296875,"y":-56.0,"id":"551","attributes":{"lon":"-0.01646","lat":"51.505772"},"color":"rgb(0,0,0)","size":10.0},{"label":"Twig Folly Bridge, Mile End","x":14847.369140625,"y":6831.0,"id":"531","attributes":{"lon":"-0.042744","lat":"51.530326"},"color":"rgb(0,0,0)","size":10.0},{"label":"Vauxhall Walk, Vauxhall","x":1206.0511474609375,"y":-5003.0,"id":"437","attributes":{"lon":"-0.120903","lat":"51.488124"},"color":"rgb(0,0,0)","size":10.0},{"label":"Nevern Place, Earl\u0027s Court","x":-11683.904296875,"y":-3540.0,"id":"332","attributes":{"lon":"-0.194757","lat":"51.493343"},"color":"rgb(0,0,0)","size":10.0},{"label":"Thorndike Close, West Chelsea","x":-9780.796875,"y":-7029.0,"id":"651","attributes":{"lon":"-0.183853","lat":"51.480898"},"color":"rgb(0,0,0)","size":10.0},{"label":"Clarendon Road, Avondale","x":-14622.3408203125,"y":2036.0,"id":"663","attributes":{"lon":"-0.211593","lat":"51.51323"},"color":"rgb(0,0,0)","size":10.0},{"label":"Roscoe Street, St. Luke\u0027s","x":5738.49658203125,"y":4763.0,"id":"52","attributes":{"lon":"-0.094934","lat":"51.522954"},"color":"rgb(0,0,0)","size":10.0},{"label":"St. George Street, Mayfair","x":-2612.729248046875,"y":1680.0,"id":"349","attributes":{"lon":"-0.142783","lat":"51.51196"},"color":"rgb(0,0,0)","size":10.0},{"label":"Kingsway, Covent Garden","x":1629.29345703125,"y":2366.0,"id":"283","attributes":{"lon":"-0.118478","lat":"51.514409"},"color":"rgb(0,0,0)","size":10.0},{"label":"Farringdon Street, Holborn","x":3990.8984375,"y":3033.0,"id":"835","attributes":{"lon":"-0.104947","lat":"51.516785"},"color":"rgb(0,0,0)","size":10.0},{"label":"Sloane Avenue, Knightsbridge","x":-6995.42578125,"y":-3585.0,"id":"163","attributes":{"lon":"-0.167894","lat":"51.493184"},"color":"rgb(0,0,0)","size":10.0},{"label":"Knightsbridge, Hyde Park","x":-4805.91015625,"y":-901.0,"id":"222","attributes":{"lon":"-0.155349","lat":"51.502757"},"color":"rgb(0,0,0)","size":10.0},{"label":"Smith Square, Westminster","x":41.567405700683594,"y":-2850.0,"id":"281","attributes":{"lon":"-0.127575","lat":"51.495805"},"color":"rgb(0,0,0)","size":10.0},{"label":"Fanshaw Street, Hoxton","x":7759.7626953125,"y":6610.0,"id":"31","attributes":{"lon":"-0.083353","lat":"51.529537"},"color":"rgb(0,0,0)","size":10.0},{"label":"Bruton Street, Mayfair","x":-2853.933837890625,"y":1336.0,"id":"44","attributes":{"lon":"-0.144165","lat":"51.510736"},"color":"rgb(0,0,0)","size":10.0},{"label":"Old Quebec Street, Marylebone","x":-5314.67333984375,"y":2413.0,"id":"99","attributes":{"lon":"-0.158264","lat":"51.514577"},"color":"rgb(0,0,0)","size":10.0},{"label":"London Zoo,  The Regent\u0027s Park","x":-4969.27294921875,"y":8377.0,"id":"271","attributes":{"lon":"-0.156285","lat":"51.535836"},"color":"rgb(0,0,0)","size":10.0},{"label":"Green Park Station, Mayfair","x":-2623.375732421875,"y":180.0,"id":"541","attributes":{"lon":"-0.142844","lat":"51.506613"},"color":"rgb(0,0,0)","size":10.0},{"label":"Coomer Place, West Kensington","x":-12954.6787109375,"y":-6280.0,"id":"639","attributes":{"lon":"-0.202038","lat":"51.48357"},"color":"rgb(0,0,0)","size":10.0},{"label":"Kennington Lane Tesco, Vauxhall","x":2121.3017578125,"y":-5368.0,"id":"305","attributes":{"lon":"-0.115659","lat":"51.486824"},"color":"rgb(0,0,0)","size":10.0},{"label":"Bell Lane, Liverpool Street","x":9068.41015625,"y":3226.0,"id":"506","attributes":{"lon":"-0.075855","lat":"51.517475"},"color":"rgb(0,0,0)","size":10.0},{"label":"Oxford Road, Putney","x":-14799.31640625,"y":-12662.0,"id":"743","attributes":{"lon":"-0.212607","lat":"51.460792"},"color":"rgb(0,0,0)","size":10.0},{"label":"Pindar Street, Liverpool Street","x":7735.32763671875,"y":4202.0,"id":"41","attributes":{"lon":"-0.083493","lat":"51.520955"},"color":"rgb(0,0,0)","size":10.0},{"label":"Addison Road, Holland Park","x":-14508.544921875,"y":-497.0,"id":"606","attributes":{"lon":"-0.210941","lat":"51.504199"},"color":"rgb(0,0,0)","size":10.0},{"label":"Kennington Road Post Office, Oval","x":2989.777587890625,"y":-5938.0,"id":"149","attributes":{"lon":"-0.110683","lat":"51.484788"},"color":"rgb(0,0,0)","size":10.0},{"label":"West Cromwell Road, Earl\u0027s Court","x":-12299.8310546875,"y":-3434.0,"id":"142","attributes":{"lon":"-0.198286","lat":"51.493724"},"color":"rgb(0,0,0)","size":10.0},{"label":"Hartington Road, Stockwell","x":163.9149932861328,"y":-7877.0,"id":"676","attributes":{"lon":"-0.126874","lat":"51.47787"},"color":"rgb(0,0,0)","size":10.0},{"label":"Knaresborough Place, Earl\u0027s Court","x":-10958.89453125,"y":-3460.0,"id":"296","attributes":{"lon":"-0.190603","lat":"51.493631"},"color":"rgb(0,0,0)","size":10.0},{"label":"Goswell Road (City Uni), Finsbury","x":4675.2421875,"y":6248.0,"id":"344","attributes":{"lon":"-0.101026","lat":"51.528246"},"color":"rgb(0,0,0)","size":10.0},{"label":"Collingham Gardens, Earl\u0027s Court","x":-10286.9423828125,"y":-4025.0,"id":"171","attributes":{"lon":"-0.186753","lat":"51.491615"},"color":"rgb(0,0,0)","size":10.0},{"label":"Old Brompton Road, South Kensington","x":-9316.015625,"y":-4213.0,"id":"216","attributes":{"lon":"-0.18119","lat":"51.490945"},"color":"rgb(0,0,0)","size":10.0},{"label":"Portman Square, Marylebone","x":-4836.6279296875,"y":2870.0,"id":"514","attributes":{"lon":"-0.155525","lat":"51.516204"},"color":"rgb(0,0,0)","size":10.0},{"label":"Northdown Street, King\u0027s Cross","x":1478.8460693359375,"y":7039.0,"id":"593","attributes":{"lon":"-0.11934","lat":"51.531066"},"color":"rgb(0,0,0)","size":10.0},{"label":"Eaton Square (South), Belgravia","x":-4558.771484375,"y":-3199.0,"id":"423","attributes":{"lon":"-0.153933","lat":"51.494561"},"color":"rgb(0,0,0)","size":10.0},{"label":"Chadwell Street, Angel","x":3735.90576171875,"y":6884.0,"id":"254","attributes":{"lon":"-0.106408","lat":"51.530515"},"color":"rgb(0,0,0)","size":10.0},{"label":"Tower Gardens , Tower","x":9137.5244140625,"y":991.0,"id":"130","attributes":{"lon":"-0.075459","lat":"51.509506"},"color":"rgb(0,0,0)","size":10.0},{"label":"New Fetter Lane, Holborn","x":3460.318359375,"y":3213.0,"id":"546","attributes":{"lon":"-0.107987","lat":"51.517428"},"color":"rgb(0,0,0)","size":10.0},{"label":"Star Road, West Kensington","x":-13520.33984375,"y":-5250.0,"id":"720","attributes":{"lon":"-0.205279","lat":"51.487244"},"color":"rgb(0,0,0)","size":10.0},{"label":"Butler Place, Westminster","x":-1331.134033203125,"y":-2283.0,"id":"359","attributes":{"lon":"-0.13544","lat":"51.497829"},"color":"rgb(0,0,0)","size":10.0},{"label":"Monument Street, Monument","x":7477.54248046875,"y":1029.0,"id":"587","attributes":{"lon":"-0.08497","lat":"51.50964"},"color":"rgb(0,0,0)","size":10.0},{"label":"Lambeth Palace Road, Waterloo","x":1952.1793212890625,"y":-1649.0,"id":"815","attributes":{"lon":"-0.116628","lat":"51.500089"},"color":"rgb(0,0,0)","size":10.0},{"label":"Finsbury Circus, Liverpool Street","x":7178.21875,"y":3114.0,"id":"55","attributes":{"lon":"-0.086685","lat":"51.517075"},"color":"rgb(0,0,0)","size":10.0},{"label":"Southampton Place, Holborn","x":1131.8746337890625,"y":3263.0,"id":"162","attributes":{"lon":"-0.121328","lat":"51.517606"},"color":"rgb(0,0,0)","size":10.0},{"label":"Regent\u0027s Row , Haggerston","x":11391.2685546875,"y":8333.0,"id":"553","attributes":{"lon":"-0.062546","lat":"51.535678"},"color":"rgb(0,0,0)","size":10.0},{"label":"Brook Green South, Brook Green","x":-15357.298828125,"y":-3259.0,"id":"634","attributes":{"lon":"-0.215804","lat":"51.494347"},"color":"rgb(0,0,0)","size":10.0},{"label":"Thessaly Road North, Nine Elms","x":-1914.24853515625,"y":-8044.0,"id":"1001","attributes":{"lon":"-0.138781","lat":"51.477273"},"color":"rgb(0,0,0)","size":10.0},{"label":"Lisson Grove, St. John\u0027s Wood","x":-7745.21923828125,"y":5743.0,"id":"60","attributes":{"lon":"-0.17219","lat":"51.526448"},"color":"rgb(0,0,0)","size":10.0},{"label":"Abyssinia Close, Clapham Junction","x":-6844.45458984375,"y":-12791.0,"id":"776","attributes":{"lon":"-0.167029","lat":"51.460333"},"color":"rgb(0,0,0)","size":10.0},{"label":"Union Street, The Borough","x":5116.6357421875,"y":-640.0,"id":"196","attributes":{"lon":"-0.098497","lat":"51.503688"},"color":"rgb(0,0,0)","size":10.0},{"label":"Dorothy Road, Clapham Junction","x":-6272.1611328125,"y":-11465.0,"id":"683","attributes":{"lon":"-0.16375","lat":"51.465064"},"color":"rgb(0,0,0)","size":10.0},{"label":"Fisherman\u0027s Walk West, Canary Wharf","x":18300.330078125,"y":73.0,"id":"448","attributes":{"lon":"-0.02296","lat":"51.50623"},"color":"rgb(0,0,0)","size":10.0},{"label":"Crinan Street, King\u0027s Cross","x":979.1582641601562,"y":7995.0,"id":"431","attributes":{"lon":"-0.122203","lat":"51.534474"},"color":"rgb(0,0,0)","size":10.0},{"label":"Tysoe Street, Clerkenwell","x":3238.836181640625,"y":5742.0,"id":"264","attributes":{"lon":"-0.109256","lat":"51.526443"},"color":"rgb(0,0,0)","size":10.0},{"label":"Bedford Way, Bloomsbury","x":-98.40799713134766,"y":4965.0,"id":"287","attributes":{"lon":"-0.128377","lat":"51.523673"},"color":"rgb(0,0,0)","size":10.0},{"label":"Kingsway Southbound, Strand","x":1752.1646728515625,"y":2217.0,"id":"594","attributes":{"lon":"-0.117774","lat":"51.513875"},"color":"rgb(0,0,0)","size":10.0},{"label":"Stewart\u0027s Road, Wandsworth Road","x":-1644.420654296875,"y":-9209.0,"id":"714","attributes":{"lon":"-0.137235","lat":"51.473116"},"color":"rgb(0,0,0)","size":10.0},{"label":"Notting Hill Gate Station, Notting Hill","x":-11974.5009765625,"y":948.0,"id":"225","attributes":{"lon":"-0.196422","lat":"51.509353"},"color":"rgb(0,0,0)","size":10.0},{"label":"Bayley Street , Bloomsbury","x":-739.9910888671875,"y":3538.0,"id":"88","attributes":{"lon":"-0.132053","lat":"51.518587"},"color":"rgb(0,0,0)","size":10.0},{"label":"Stebondale Street, Cubitt Town","x":20701.03125,"y":-4731.0,"id":"476","attributes":{"lon":"-0.009205","lat":"51.489096"},"color":"rgb(0,0,0)","size":10.0},{"label":"Ferndale Road, Brixton","x":2100.0087890625,"y":-11758.0,"id":"832","attributes":{"lon":"-0.115781","lat":"51.464019"},"color":"rgb(0,0,0)","size":10.0},{"label":"Ashmole Estate, Oval","x":1771.8868408203125,"y":-6530.0,"id":"654","attributes":{"lon":"-0.117661","lat":"51.482678"},"color":"rgb(0,0,0)","size":10.0},{"label":"Carnegie Street, King\u0027s Cross","x":2028.4503173828125,"y":8274.0,"id":"674","attributes":{"lon":"-0.116191","lat":"51.535467"},"color":"rgb(0,0,0)","size":10.0},{"label":"Bethnal Green Road, Shoreditch","x":9260.5703125,"y":4958.0,"id":"132","attributes":{"lon":"-0.074754","lat":"51.523648"},"color":"rgb(0,0,0)","size":10.0},{"label":"Pall Mall East, West End","x":-503.6734619140625,"y":505.0,"id":"233","attributes":{"lon":"-0.130699","lat":"51.50777"},"color":"rgb(0,0,0)","size":10.0},{"label":"Panton Street, West End","x":-645.2196655273438,"y":1029.0,"id":"83","attributes":{"lon":"-0.13151","lat":"51.509639"},"color":"rgb(0,0,0)","size":10.0},{"label":"Heron Quays DLR, Canary Wharf","x":18538.392578125,"y":-928.0,"id":"556","attributes":{"lon":"-0.021596","lat":"51.502661"},"color":"rgb(0,0,0)","size":10.0},{"label":"Baker Street, Marylebone","x":-4948.50341796875,"y":3630.0,"id":"121","attributes":{"lon":"-0.156166","lat":"51.518913"},"color":"rgb(0,0,0)","size":10.0},{"label":"Cephas Street, Bethnal Green","x":12728.7138671875,"y":4653.0,"id":"501","attributes":{"lon":"-0.054883","lat":"51.522561"},"color":"rgb(0,0,0)","size":10.0},{"label":"Wellington Road, St. John\u0027s Wood","x":-7804.2109375,"y":7593.0,"id":"110","attributes":{"lon":"-0.172528","lat":"51.533043"},"color":"rgb(0,0,0)","size":10.0},{"label":"Wells Street, Fitzrovia","x":-1790.504638671875,"y":3189.0,"id":"313","attributes":{"lon":"-0.138072","lat":"51.517344"},"color":"rgb(0,0,0)","size":10.0},{"label":"Farringdon Lane, Clerkenwell","x":3398.708251953125,"y":4922.0,"id":"72","attributes":{"lon":"-0.10834","lat":"51.52352"},"color":"rgb(0,0,0)","size":10.0},{"label":"Belvedere Road 2, South Bank","x":2263.895263671875,"y":67.0,"id":"819","attributes":{"lon":"-0.114842","lat":"51.50621"},"color":"rgb(0,0,0)","size":10.0},{"label":"Old Montague Street, Whitechapel","x":10450.361328125,"y":3354.0,"id":"537","attributes":{"lon":"-0.067937","lat":"51.51793"},"color":"rgb(0,0,0)","size":10.0},{"label":"Guilford Street , Bloomsbury","x":1328.398681640625,"y":4873.0,"id":"57","attributes":{"lon":"-0.120202","lat":"51.523346"},"color":"rgb(0,0,0)","size":10.0},{"label":"Battersea Power Station, Battersea Park","x":-3473.35107421875,"y":-6297.0,"id":"821","attributes":{"lon":"-0.147714","lat":"51.483507"},"color":"rgb(0,0,0)","size":10.0},{"label":"Phene Street, Chelsea","x":-6999.7890625,"y":-5883.0,"id":"662","attributes":{"lon":"-0.167919","lat":"51.484984"},"color":"rgb(0,0,0)","size":10.0},{"label":"Breams Buildings, Holborn","x":2798.6640625,"y":2795.0,"id":"84","attributes":{"lon":"-0.111778","lat":"51.515937"},"color":"rgb(0,0,0)","size":10.0},{"label":"Queen\u0027s Gate (South), South Kensington","x":-8834.828125,"y":-3783.0,"id":"187","attributes":{"lon":"-0.178433","lat":"51.492479"},"color":"rgb(0,0,0)","size":10.0},{"label":"Tower Wharf, Bermondsey","x":9269.296875,"y":-1437.0,"id":"841","attributes":{"lon":"-0.074704","lat":"51.500845"},"color":"rgb(0,0,0)","size":10.0},{"label":"East Road, Hoxton","x":7043.13037109375,"y":6367.0,"id":"50","attributes":{"lon":"-0.087459","lat":"51.528673"},"color":"rgb(0,0,0)","size":10.0},{"label":"All Saints Church, Portobello","x":-13054.162109375,"y":2902.0,"id":"661","attributes":{"lon":"-0.202608","lat":"51.51632"},"color":"rgb(0,0,0)","size":10.0},{"label":"Teviot Street, Poplar","x":20272.203125,"y":3601.0,"id":"519","attributes":{"lon":"-0.011662","lat":"51.518811"},"color":"rgb(0,0,0)","size":10.0},{"label":"Margery Street, Clerkenwell","x":2684.51953125,"y":5786.0,"id":"204","attributes":{"lon":"-0.112432","lat":"51.526599"},"color":"rgb(0,0,0)","size":10.0},{"label":"Holy Trinity Brompton, Knightsbridge","x":-7173.97265625,"y":-2500.0,"id":"150","attributes":{"lon":"-0.168917","lat":"51.497056"},"color":"rgb(0,0,0)","size":10.0},{"label":"Triangle Car Park, Hyde Park","x":-7411.6865234375,"y":135.0,"id":"248","attributes":{"lon":"-0.170279","lat":"51.506451"},"color":"rgb(0,0,0)","size":10.0},{"label":"Parkway, Camden Town","x":-2941.025634765625,"y":9004.0,"id":"456","attributes":{"lon":"-0.144664","lat":"51.538071"},"color":"rgb(0,0,0)","size":10.0},{"label":"Farm Street, Mayfair","x":-3427.099853515625,"y":948.0,"id":"382","attributes":{"lon":"-0.147449","lat":"51.509351"},"color":"rgb(0,0,0)","size":10.0},{"label":"Dorset Square, Marylebone","x":-5811.91796875,"y":4663.0,"id":"201","attributes":{"lon":"-0.161113","lat":"51.522596"},"color":"rgb(0,0,0)","size":10.0},{"label":"Stratford Station, Stratford","x":21468.1015625,"y":10049.0,"id":"790","attributes":{"lon":"-0.00481","lat":"51.541793"},"color":"rgb(0,0,0)","size":10.0},{"label":"Wellington Arch, Hyde Park","x":-3797.109619140625,"y":-906.0,"id":"213","attributes":{"lon":"-0.149569","lat":"51.50274"},"color":"rgb(0,0,0)","size":10.0},{"label":"Cotton Garden Estate, Kennington","x":3750.7412109375,"y":-4265.0,"id":"62","attributes":{"lon":"-0.106323","lat":"51.490757"},"color":"rgb(0,0,0)","size":10.0},{"label":"Ontario Street, Elephant \u0026 Castle","x":4612.75927734375,"y":-2650.0,"id":"324","attributes":{"lon":"-0.101384","lat":"51.49652"},"color":"rgb(0,0,0)","size":10.0},{"label":"Scala Street, Fitzrovia","x":-1435.67919921875,"y":3910.0,"id":"13","attributes":{"lon":"-0.136039","lat":"51.519914"},"color":"rgb(0,0,0)","size":10.0},{"label":"Westminster University, Marylebone","x":-4728.7666015625,"y":4630.0,"id":"257","attributes":{"lon":"-0.154907","lat":"51.522481"},"color":"rgb(0,0,0)","size":10.0},{"label":"Shoreditch High Street, Shoreditch","x":8671.34765625,"y":5723.0,"id":"39","attributes":{"lon":"-0.07813","lat":"51.526377"},"color":"rgb(0,0,0)","size":10.0},{"label":"Sardinia Street, Holborn","x":1736.6312255859375,"y":2590.0,"id":"372","attributes":{"lon":"-0.117863","lat":"51.515208"},"color":"rgb(0,0,0)","size":10.0},{"label":"Prince Albert Road, The Regent\u0027s Park","x":-5766.7138671875,"y":8393.0,"id":"329","attributes":{"lon":"-0.160854","lat":"51.535892"},"color":"rgb(0,0,0)","size":10.0},{"label":"Whitehall Place, Strand","x":808.8140869140625,"y":160.0,"id":"229","attributes":{"lon":"-0.123179","lat":"51.506543"},"color":"rgb(0,0,0)","size":10.0},{"label":"Nutford Place, Marylebone","x":-6384.3857421875,"y":2958.0,"id":"188","attributes":{"lon":"-0.164393","lat":"51.516517"},"color":"rgb(0,0,0)","size":10.0},{"label":"Saunders Ness Road, Cubitt Town","x":20736.634765625,"y":-5282.0,"id":"481","attributes":{"lon":"-0.009001","lat":"51.487129"},"color":"rgb(0,0,0)","size":10.0},{"label":"Central House, Whitechapel","x":10067.0869140625,"y":2597.0,"id":"33","attributes":{"lon":"-0.070133","lat":"51.515231"},"color":"rgb(0,0,0)","size":10.0},{"label":"Wapping Lane, Wapping","x":12264.2822265625,"y":-343.0,"id":"458","attributes":{"lon":"-0.057544","lat":"51.504749"},"color":"rgb(0,0,0)","size":10.0},{"label":"Devonshire Square, Liverpool Street","x":8400.123046875,"y":2944.0,"id":"87","attributes":{"lon":"-0.079684","lat":"51.516468"},"color":"rgb(0,0,0)","size":10.0},{"label":"Lexham Gardens, Kensington","x":-11191.0234375,"y":-2833.0,"id":"155","attributes":{"lon":"-0.191933","lat":"51.495866"},"color":"rgb(0,0,0)","size":10.0},{"label":"Westfield Ariel Way, White City","x":-16805.74609375,"y":894.0,"id":"566","attributes":{"lon":"-0.224103","lat":"51.509158"},"color":"rgb(0,0,0)","size":10.0},{"label":"Abingdon Villas, Kensington","x":-12118.1416015625,"y":-2407.0,"id":"38","attributes":{"lon":"-0.197245","lat":"51.497387"},"color":"rgb(0,0,0)","size":10.0},{"label":"Lower Thames Street, Monument","x":7474.9248046875,"y":934.0,"id":"276","attributes":{"lon":"-0.084985","lat":"51.509301"},"color":"rgb(0,0,0)","size":10.0},{"label":"Rossmore Road, Marylebone","x":-6321.37939453125,"y":5391.0,"id":"760","attributes":{"lon":"-0.164032","lat":"51.525194"},"color":"rgb(0,0,0)","size":10.0},{"label":"Argyll Road, Kensington","x":-11805.7275390625,"y":-1562.0,"id":"168","attributes":{"lon":"-0.195455","lat":"51.500401"},"color":"rgb(0,0,0)","size":10.0},{"label":"Heath Road, Battersea","x":-3269.147705078125,"y":-10455.0,"id":"677","attributes":{"lon":"-0.146544","lat":"51.468669"},"color":"rgb(0,0,0)","size":10.0},{"label":"Eaton Square, Belgravia","x":-4030.28564453125,"y":-2643.0,"id":"124","attributes":{"lon":"-0.150905","lat":"51.496544"},"color":"rgb(0,0,0)","size":10.0},{"label":"Ormonde Gate, Chelsea","x":-5925.71337890625,"y":-5048.0,"id":"747","attributes":{"lon":"-0.161765","lat":"51.487964"},"color":"rgb(0,0,0)","size":10.0},{"label":"Upper Richmond Road, Putney","x":-14718.6826171875,"y":-12964.0,"id":"705","attributes":{"lon":"-0.212145","lat":"51.459715"},"color":"rgb(0,0,0)","size":10.0},{"label":"Ilchester Gardens, Bayswater","x":-11021.2021484375,"y":1814.0,"id":"584","attributes":{"lon":"-0.19096","lat":"51.51244"},"color":"rgb(0,0,0)","size":10.0},{"label":"Usk Road, Clapham Junction","x":-9479.37890625,"y":-11907.0,"id":"675","attributes":{"lon":"-0.182126","lat":"51.463489"},"color":"rgb(0,0,0)","size":10.0},{"label":"Malmesbury Road, Bow","x":17487.705078125,"y":6586.0,"id":"472","attributes":{"lon":"-0.027616","lat":"51.529452"},"color":"rgb(0,0,0)","size":10.0},{"label":"Putney Bridge Road, East Putney","x":-13688.0654296875,"y":-12324.0,"id":"728","attributes":{"lon":"-0.20624","lat":"51.461999"},"color":"rgb(0,0,0)","size":10.0},{"label":"Fashion Street, Whitechapel","x":9490.255859375,"y":3480.0,"id":"236","attributes":{"lon":"-0.073438","lat":"51.51838"},"color":"rgb(0,0,0)","size":10.0},{"label":"Riverlight North, Nine Elms","x":-1450.3399658203125,"y":-6618.0,"id":"183","attributes":{"lon":"-0.136123","lat":"51.482362"},"color":"rgb(0,0,0)","size":10.0},{"label":"Southwick Street, Paddington","x":-7231.91748046875,"y":2799.0,"id":"265","attributes":{"lon":"-0.169249","lat":"51.515953"},"color":"rgb(0,0,0)","size":10.0},{"label":"Falcon Road, Clapham Junction","x":-7331.75048828125,"y":-11026.0,"id":"638","attributes":{"lon":"-0.169821","lat":"51.466633"},"color":"rgb(0,0,0)","size":10.0},{"label":"The Metropolitan, Portobello","x":-12739.3046875,"y":4077.0,"id":"805","attributes":{"lon":"-0.200804","lat":"51.520509"},"color":"rgb(0,0,0)","size":10.0},{"label":"Durant Street, Bethnal Green","x":10866.9716796875,"y":6370.0,"id":"702","attributes":{"lon":"-0.06555","lat":"51.528681"},"color":"rgb(0,0,0)","size":10.0},{"label":"Temple Gardens, Temple","x":3401.849853515625,"y":1405.0,"id":"842","attributes":{"lon":"-0.108322","lat":"51.510981"},"color":"rgb(0,0,0)","size":10.0},{"label":"Austin Road, Battersea Park","x":-4822.1416015625,"y":-8856.0,"id":"664","attributes":{"lon":"-0.155442","lat":"51.474376"},"color":"rgb(0,0,0)","size":10.0},{"label":"Porchester Place, Paddington","x":-6518.95068359375,"y":2461.0,"id":"169","attributes":{"lon":"-0.165164","lat":"51.514746"},"color":"rgb(0,0,0)","size":10.0},{"label":"Frith Street, Soho","x":-593.3834228515625,"y":2000.0,"id":"383","attributes":{"lon":"-0.131213","lat":"51.513103"},"color":"rgb(0,0,0)","size":10.0},{"label":"Spanish Road, Clapham Junction","x":-9262.6083984375,"y":-13101.0,"id":"689","attributes":{"lon":"-0.180884","lat":"51.459225"},"color":"rgb(0,0,0)","size":10.0},{"label":"Bayswater Road, Hyde Park","x":-8132.8564453125,"y":1672.0,"id":"153","attributes":{"lon":"-0.174411","lat":"51.511933"},"color":"rgb(0,0,0)","size":10.0},{"label":"Craven Street, Strand","x":312.79156494140625,"y":598.0,"id":"341","attributes":{"lon":"-0.126021","lat":"51.508103"},"color":"rgb(0,0,0)","size":10.0},{"label":"Selby Street, Whitechapel","x":11244.6611328125,"y":4469.0,"id":"565","attributes":{"lon":"-0.063386","lat":"51.521905"},"color":"rgb(0,0,0)","size":10.0},{"label":"Flood Street, Chelsea","x":-6818.10009765625,"y":-5032.0,"id":"345","attributes":{"lon":"-0.166878","lat":"51.488023"},"color":"rgb(0,0,0)","size":10.0},{"label":"Castlehaven Road, Camden Town","x":-3068.26025390625,"y":10145.0,"id":"457","attributes":{"lon":"-0.145393","lat":"51.542138"},"color":"rgb(0,0,0)","size":10.0},{"label":"Rotherhithe Roundabout, Rotherhithe","x":12560.638671875,"y":-1907.0,"id":"411","attributes":{"lon":"-0.055846","lat":"51.499169"},"color":"rgb(0,0,0)","size":10.0},{"label":"Princedale Road , Holland Park","x":-14080.06640625,"y":139.0,"id":"611","attributes":{"lon":"-0.208486","lat":"51.506465"},"color":"rgb(0,0,0)","size":10.0},{"label":"St. Peter\u0027s Terrace, Fulham","x":-14079.8916015625,"y":-7578.0,"id":"729","attributes":{"lon":"-0.208485","lat":"51.478939"},"color":"rgb(0,0,0)","size":10.0},{"label":"Liverpool Road (N1 Centre), Angel","x":3633.978515625,"y":8003.0,"id":"234","attributes":{"lon":"-0.106992","lat":"51.534504"},"color":"rgb(0,0,0)","size":10.0},{"label":"Baldwin Street, St. Luke\u0027s","x":6854.111328125,"y":5905.0,"id":"319","attributes":{"lon":"-0.088542","lat":"51.527025"},"color":"rgb(0,0,0)","size":10.0},{"label":"Vauxhall Street, Vauxhall","x":1952.7030029296875,"y":-5328.0,"id":"352","attributes":{"lon":"-0.116625","lat":"51.486965"},"color":"rgb(0,0,0)","size":10.0},{"label":"Phillimore Gardens, Kensington","x":-12175.5634765625,"y":-1785.0,"id":"2","attributes":{"lon":"-0.197574","lat":"51.499606"},"color":"rgb(0,0,0)","size":10.0},{"label":"Russell Gardens, Olympia","x":-14573.9951171875,"y":-1649.0,"id":"515","attributes":{"lon":"-0.211316","lat":"51.500088"},"color":"rgb(0,0,0)","size":10.0},{"label":"Harris Academy, Bermondsey","x":9680.1474609375,"y":-3730.0,"id":"666","attributes":{"lon":"-0.07235","lat":"51.492668"},"color":"rgb(0,0,0)","size":10.0},{"label":"Store Street, Bloomsbury","x":-755.1754150390625,"y":3814.0,"id":"364","attributes":{"lon":"-0.13214","lat":"51.519572"},"color":"rgb(0,0,0)","size":10.0},{"label":"Risinghill Street, Angel","x":2798.140380859375,"y":7671.0,"id":"339","attributes":{"lon":"-0.111781","lat":"51.533319"},"color":"rgb(0,0,0)","size":10.0},{"label":"Mile End Stadium, Mile End","x":16215.8818359375,"y":3525.0,"id":"712","attributes":{"lon":"-0.034903","lat":"51.518541"},"color":"rgb(0,0,0)","size":10.0},{"label":"Baylis Road, Waterloo","x":2986.985107421875,"y":-1269.0,"id":"272","attributes":{"lon":"-0.110699","lat":"51.501444"},"color":"rgb(0,0,0)","size":10.0},{"label":"Vauxhall Cross, Vauxhall","x":583.6666259765625,"y":-5622.0,"id":"74","attributes":{"lon":"-0.124469","lat":"51.485917"},"color":"rgb(0,0,0)","size":10.0},{"label":"Colombo Street, Southwark","x":3877.626708984375,"y":-176.0,"id":"240","attributes":{"lon":"-0.105596","lat":"51.505342"},"color":"rgb(0,0,0)","size":10.0},{"label":"Shoreditch Park, Hoxton","x":7231.6259765625,"y":7874.0,"id":"253","attributes":{"lon":"-0.086379","lat":"51.534042"},"color":"rgb(0,0,0)","size":10.0},{"label":"Stepney Green Station, Stepney","x":14162.1533203125,"y":4464.0,"id":"478","attributes":{"lon":"-0.04667","lat":"51.521889"},"color":"rgb(0,0,0)","size":10.0},{"label":"Orbel Street, Battersea","x":-7399.64404296875,"y":-8812.0,"id":"679","attributes":{"lon":"-0.17021","lat":"51.474535"},"color":"rgb(0,0,0)","size":10.0},{"label":"The Guildhall, Guildhall","x":6062.08056640625,"y":2738.0,"id":"120","attributes":{"lon":"-0.09308","lat":"51.515735"},"color":"rgb(0,0,0)","size":10.0},{"label":"Taviton Street, Bloomsbury","x":-584.3076782226562,"y":5351.0,"id":"19","attributes":{"lon":"-0.131161","lat":"51.52505"},"color":"rgb(0,0,0)","size":10.0},{"label":"Claverton Street, Pimlico","x":-1793.4716796875,"y":-5924.0,"id":"291","attributes":{"lon":"-0.138089","lat":"51.484839"},"color":"rgb(0,0,0)","size":10.0},{"label":"Clifford Street, Mayfair","x":-2536.283935546875,"y":1315.0,"id":"391","attributes":{"lon":"-0.142345","lat":"51.510662"},"color":"rgb(0,0,0)","size":10.0},{"label":"Penfold Street, Marylebone","x":-7656.3818359375,"y":4746.0,"id":"402","attributes":{"lon":"-0.171681","lat":"51.522892"},"color":"rgb(0,0,0)","size":10.0},{"label":"Derry Street, Kensington","x":-11108.818359375,"y":-1292.0,"id":"133","attributes":{"lon":"-0.191462","lat":"51.501364"},"color":"rgb(0,0,0)","size":10.0},{"label":"Shadwell Station, Shadwell","x":12331.4775390625,"y":1435.0,"id":"449","attributes":{"lon":"-0.057159","lat":"51.511088"},"color":"rgb(0,0,0)","size":10.0},{"label":"Cadogan Close, Victoria Park","x":17256.44921875,"y":10140.0,"id":"692","attributes":{"lon":"-0.028941","lat":"51.542118"},"color":"rgb(0,0,0)","size":10.0},{"label":"Torrens Street, Angel","x":3897.872314453125,"y":7357.0,"id":"75","attributes":{"lon":"-0.10548","lat":"51.532199"},"color":"rgb(0,0,0)","size":10.0},{"label":"Macclesfield Rd, St Lukes","x":5356.61865234375,"y":6578.0,"id":"351","attributes":{"lon":"-0.097122","lat":"51.529423"},"color":"rgb(0,0,0)","size":10.0},{"label":"Brushfield Street, Liverpool Street","x":8476.044921875,"y":3628.0,"id":"251","attributes":{"lon":"-0.079249","lat":"51.518908"},"color":"rgb(0,0,0)","size":10.0},{"label":"St. Mary \u0026 St. Michael Church, Stepney","x":13214.6142578125,"y":2299.0,"id":"464","attributes":{"lon":"-0.052099","lat":"51.51417"},"color":"rgb(0,0,0)","size":10.0},{"label":"Cheapside, Bank","x":6086.51513671875,"y":2243.0,"id":"427","attributes":{"lon":"-0.09294","lat":"51.51397"},"color":"rgb(0,0,0)","size":10.0},{"label":"Northington Street , Holborn","x":2397.063720703125,"y":4569.0,"id":"22","attributes":{"lon":"-0.114079","lat":"51.522264"},"color":"rgb(0,0,0)","size":10.0},{"label":"Snowsfields, London Bridge","x":7711.06787109375,"y":-1070.0,"id":"706","attributes":{"lon":"-0.083632","lat":"51.502153"},"color":"rgb(0,0,0)","size":10.0},{"label":"Seville Street, Knightsbridge","x":-5484.494140625,"y":-1154.0,"id":"166","attributes":{"lon":"-0.159237","lat":"51.501855"},"color":"rgb(0,0,0)","size":10.0},{"label":"Killick Street, King\u0027s Cross","x":1594.5614013671875,"y":7806.0,"id":"439","attributes":{"lon":"-0.118677","lat":"51.5338"},"color":"rgb(0,0,0)","size":10.0},{"label":"Fawcett Close, Battersea","x":-8145.77197265625,"y":-10317.0,"id":"642","attributes":{"lon":"-0.174485","lat":"51.469161"},"color":"rgb(0,0,0)","size":10.0},{"label":"Beaumont Street, Marylebone","x":-4109.5234375,"y":4498.0,"id":"242","attributes":{"lon":"-0.151359","lat":"51.522008"},"color":"rgb(0,0,0)","size":10.0},{"label":"Pembridge Villas, Notting Hill","x":-12166.8369140625,"y":1434.0,"id":"337","attributes":{"lon":"-0.197524","lat":"51.511084"},"color":"rgb(0,0,0)","size":10.0},{"label":"Felsham Road, Putney","x":-15324.8349609375,"y":-11543.0,"id":"693","attributes":{"lon":"-0.215618","lat":"51.464786"},"color":"rgb(0,0,0)","size":10.0},{"label":"Wendon Street, Old Ford","x":17724.021484375,"y":8434.0,"id":"721","attributes":{"lon":"-0.026262","lat":"51.536039"},"color":"rgb(0,0,0)","size":10.0},{"label":"Belvedere Road 1, South Bank","x":2291.122314453125,"y":45.0,"id":"273","attributes":{"lon":"-0.114686","lat":"51.506133"},"color":"rgb(0,0,0)","size":10.0},{"label":"South Lambeth Road, Vauxhall","x":553.4724731445312,"y":-6791.0,"id":"600","attributes":{"lon":"-0.124642","lat":"51.481747"},"color":"rgb(0,0,0)","size":10.0},{"label":"Fournier Street, Whitechapel","x":9316.9443359375,"y":3755.0,"id":"508","attributes":{"lon":"-0.074431","lat":"51.519362"},"color":"rgb(0,0,0)","size":10.0},{"label":"Hereford Road, Bayswater","x":-11462.2470703125,"y":2177.0,"id":"29","attributes":{"lon":"-0.193487","lat":"51.513735"},"color":"rgb(0,0,0)","size":10.0},{"label":"Chelsea Bridge, Pimlico","x":-3698.49853515625,"y":-5649.0,"id":"419","attributes":{"lon":"-0.149004","lat":"51.485821"},"color":"rgb(0,0,0)","size":10.0},{"label":"Long Lane , Bermondsey","x":7356.06787109375,"y":-1933.0,"id":"308","attributes":{"lon":"-0.085666","lat":"51.499075"},"color":"rgb(0,0,0)","size":10.0},{"label":"Blenheim Crescent, Ladbroke Grove","x":-14093.8544921875,"y":2562.0,"id":"742","attributes":{"lon":"-0.208565","lat":"51.515108"},"color":"rgb(0,0,0)","size":10.0},{"label":"Dunston Road , Haggerston","x":9063.173828125,"y":8587.0,"id":"717","attributes":{"lon":"-0.075885","lat":"51.536585"},"color":"rgb(0,0,0)","size":10.0},{"label":"Swan Street, The Borough","x":6117.58203125,"y":-1591.0,"id":"295","attributes":{"lon":"-0.092762","lat":"51.500296"},"color":"rgb(0,0,0)","size":10.0},{"label":"Sun Street, Liverpool Street","x":7658.18408203125,"y":3937.0,"id":"408","attributes":{"lon":"-0.083935","lat":"51.520009"},"color":"rgb(0,0,0)","size":10.0},{"label":"Endsleigh Gardens, Euston","x":-469.6395263671875,"y":5853.0,"id":"214","attributes":{"lon":"-0.130504","lat":"51.526838"},"color":"rgb(0,0,0)","size":10.0},{"label":"Dock Street, Wapping","x":10411.2666015625,"y":1070.0,"id":"237","attributes":{"lon":"-0.068161","lat":"51.509786"},"color":"rgb(0,0,0)","size":10.0},{"label":"Wandsworth Rd, Isley Court, Wandsworth Road","x":-2443.2578125,"y":-10290.0,"id":"612","attributes":{"lon":"-0.141812","lat":"51.469259"},"color":"rgb(0,0,0)","size":10.0},{"label":"Lansdowne Walk, Ladbroke Grove","x":-13413.3505859375,"y":1015.0,"id":"543","attributes":{"lon":"-0.204666","lat":"51.509591"},"color":"rgb(0,0,0)","size":10.0},{"label":"Finnis Street, Bethnal Green","x":12074.5654296875,"y":5220.0,"id":"722","attributes":{"lon":"-0.058631","lat":"51.524583"},"color":"rgb(0,0,0)","size":10.0},{"label":"Parsons Green Station, Parsons Green","x":-12942.4609375,"y":-8656.0,"id":"671","attributes":{"lon":"-0.201968","lat":"51.475089"},"color":"rgb(0,0,0)","size":10.0},{"label":"Crisp Road, Hammersmith","x":-17242.6015625,"y":-5008.0,"id":"682","attributes":{"lon":"-0.226606","lat":"51.488108"},"color":"rgb(0,0,0)","size":10.0},{"label":"Cleveland Way, Stepney","x":13337.66015625,"y":4185.0,"id":"503","attributes":{"lon":"-0.051394","lat":"51.520893"},"color":"rgb(0,0,0)","size":10.0},{"label":"Westminster Pier, Westminster","x":696.4149169921875,"y":-1250.0,"id":"818","attributes":{"lon":"-0.123823","lat":"51.501513"},"color":"rgb(0,0,0)","size":10.0},{"label":"Bridge Avenue, Hammersmith","x":-17680.6796875,"y":-3893.0,"id":"730","attributes":{"lon":"-0.229116","lat":"51.492084"},"color":"rgb(0,0,0)","size":10.0},{"label":"Newby Place, Poplar","x":20141.12890625,"y":820.0,"id":"530","attributes":{"lon":"-0.012413","lat":"51.508896"},"color":"rgb(0,0,0)","size":10.0},{"label":"City Road, Angel","x":4824.9912109375,"y":6836.0,"id":"365","attributes":{"lon":"-0.100168","lat":"51.530344"},"color":"rgb(0,0,0)","size":10.0},{"label":"Abbotsbury Road, Holland Park","x":-13644.6064453125,"y":-1284.0,"id":"559","attributes":{"lon":"-0.205991","lat":"51.501391"},"color":"rgb(0,0,0)","size":10.0},{"label":"Queen\u0027s Circus, Battersea Park","x":-3793.968017578125,"y":-7947.0,"id":"625","attributes":{"lon":"-0.149551","lat":"51.477619"},"color":"rgb(0,0,0)","size":10.0},{"label":"Sail Street, Vauxhall","x":2305.259521484375,"y":-2892.0,"id":"441","attributes":{"lon":"-0.114605","lat":"51.495656"},"color":"rgb(0,0,0)","size":10.0},{"label":"Sedding Street, Sloane Square","x":-5072.421875,"y":-3600.0,"id":"5","attributes":{"lon":"-0.156876","lat":"51.49313"},"color":"rgb(0,0,0)","size":10.0},{"label":"Gascoyne Road, Victoria Park","x":15578.138671875,"y":9971.0,"id":"474","attributes":{"lon":"-0.038557","lat":"51.541515"},"color":"rgb(0,0,0)","size":10.0},{"label":"Ada Street, Hackney Central","x":11784.83984375,"y":8343.0,"id":"718","attributes":{"lon":"-0.060291","lat":"51.535716"},"color":"rgb(0,0,0)","size":10.0},{"label":"Park Road (Baker Street), The Regent\u0027s Park","x":-5436.671875,"y":5201.0,"id":"114","attributes":{"lon":"-0.158963","lat":"51.524517"},"color":"rgb(0,0,0)","size":10.0},{"label":"Erin Close, Walham Green","x":-11861.927734375,"y":-7431.0,"id":"691","attributes":{"lon":"-0.195777","lat":"51.479463"},"color":"rgb(0,0,0)","size":10.0},{"label":"Bevington Road West, North Kensington","x":-14150.228515625,"y":4271.0,"id":"807","attributes":{"lon":"-0.208888","lat":"51.5212"},"color":"rgb(0,0,0)","size":10.0},{"label":"Imperial College, Knightsbridge","x":-9056.310546875,"y":-1835.0,"id":"392","attributes":{"lon":"-0.179702","lat":"51.499428"},"color":"rgb(0,0,0)","size":10.0},{"label":"Harper Road, The Borough","x":5519.10888671875,"y":-2067.0,"id":"249","attributes":{"lon":"-0.096191","lat":"51.498597"},"color":"rgb(0,0,0)","size":10.0},{"label":"Claremont Square, Angel","x":3123.993408203125,"y":7207.0,"id":"189","attributes":{"lon":"-0.109914","lat":"51.531666"},"color":"rgb(0,0,0)","size":10.0},{"label":"St John\u0027s Crescent, Brixton","x":2554.143310546875,"y":-11138.0,"id":"831","attributes":{"lon":"-0.113179","lat":"51.466232"},"color":"rgb(0,0,0)","size":10.0},{"label":"Clapham Common Station, Clapham Common","x":-1991.04296875,"y":-12495.0,"id":"355","attributes":{"lon":"-0.139221","lat":"51.461388"},"color":"rgb(0,0,0)","size":10.0},{"label":"Gloucester Street, Pimlico","x":-2061.55419921875,"y":-4208.0,"id":"243","attributes":{"lon":"-0.139625","lat":"51.490962"},"color":"rgb(0,0,0)","size":10.0},{"label":"Sancroft Street, Vauxhall","x":2209.091796875,"y":-4624.0,"id":"86","attributes":{"lon":"-0.115156","lat":"51.489479"},"color":"rgb(0,0,0)","size":10.0},{"label":"Plough Terrace, Clapham Junction","x":-8306.6923828125,"y":-12238.0,"id":"734","attributes":{"lon":"-0.175407","lat":"51.462305"},"color":"rgb(0,0,0)","size":10.0},{"label":"Curzon Street, Mayfair","x":-3157.446533203125,"y":308.0,"id":"49","attributes":{"lon":"-0.145904","lat":"51.507069"},"color":"rgb(0,0,0)","size":10.0},{"label":"Devons Road, Bow","x":19588.732421875,"y":5371.0,"id":"496","attributes":{"lon":"-0.015578","lat":"51.52512"},"color":"rgb(0,0,0)","size":10.0},{"label":"Wellington Row, Bethnal Green","x":10135.1552734375,"y":6241.0,"id":"533","attributes":{"lon":"-0.069743","lat":"51.528222"},"color":"rgb(0,0,0)","size":10.0},{"label":"Lavington Street, Bankside","x":5197.96826171875,"y":-209.0,"id":"801","attributes":{"lon":"-0.098031","lat":"51.505224"},"color":"rgb(0,0,0)","size":10.0},{"label":"Fulham Park Road, Fulham","x":-13963.8271484375,"y":-9110.0,"id":"597","attributes":{"lon":"-0.20782","lat":"51.473471"},"color":"rgb(0,0,0)","size":10.0},{"label":"New Spring Gardens Walk, Vauxhall","x":882.117919921875,"y":-5092.0,"id":"813","attributes":{"lon":"-0.122759","lat":"51.487807"},"color":"rgb(0,0,0)","size":10.0},{"label":"Serpentine Car Park, Hyde Park","x":-7897.0625,"y":-268.0,"id":"300","attributes":{"lon":"-0.17306","lat":"51.505014"},"color":"rgb(0,0,0)","size":10.0},{"label":"Braham Street, Aldgate","x":9472.9775390625,"y":2317.0,"id":"115","attributes":{"lon":"-0.073537","lat":"51.514233"},"color":"rgb(0,0,0)","size":10.0},{"label":"Westbridge Road, Battersea","x":-7420.4130859375,"y":-7929.0,"id":"680","attributes":{"lon":"-0.170329","lat":"51.477684"},"color":"rgb(0,0,0)","size":10.0},{"label":"Millennium Hotel, Mayfair","x":-4068.857421875,"y":1388.0,"id":"366","attributes":{"lon":"-0.151126","lat":"51.510919"},"color":"rgb(0,0,0)","size":10.0},{"label":"Limerston Street, West Chelsea","x":-9316.015625,"y":-5714.0,"id":"573","attributes":{"lon":"-0.18119","lat":"51.485587"},"color":"rgb(0,0,0)","size":10.0},{"label":"St. James\u0027s Square, St. James\u0027s","x":-1188.1915283203125,"y":407.0,"id":"228","attributes":{"lon":"-0.134621","lat":"51.507424"},"color":"rgb(0,0,0)","size":10.0},{"label":"Lollard Street, Vauxhall","x":2247.838134765625,"y":-3670.0,"id":"117","attributes":{"lon":"-0.114934","lat":"51.49288"},"color":"rgb(0,0,0)","size":10.0},{"label":"Lansdowne Drive, Hackney Central","x":11345.8896484375,"y":9499.0,"id":"21","attributes":{"lon":"-0.062806","lat":"51.539834"},"color":"rgb(0,0,0)","size":10.0},{"label":"Pott Street, Bethnal Green","x":12183.822265625,"y":5941.0,"id":"479","attributes":{"lon":"-0.058005","lat":"51.527152"},"color":"rgb(0,0,0)","size":10.0},{"label":"Clapham Road, Lingham Street, Stockwell","x":723.1184692382812,"y":-9681.0,"id":"814","attributes":{"lon":"-0.12367","lat":"51.471433"},"color":"rgb(0,0,0)","size":10.0},{"label":"Ampton Street , Clerkenwell","x":1661.2330322265625,"y":5977.0,"id":"26","attributes":{"lon":"-0.118295","lat":"51.52728"},"color":"rgb(0,0,0)","size":10.0},{"label":"Canada Water Station, Rotherhithe","x":13729.3115234375,"y":-2112.0,"id":"844","attributes":{"lon":"-0.04915","lat":"51.498439"},"color":"rgb(0,0,0)","size":10.0},{"label":"Rifle Place, Avondale","x":-15394.2998046875,"y":912.0,"id":"771","attributes":{"lon":"-0.216016","lat":"51.509224"},"color":"rgb(0,0,0)","size":10.0},{"label":"Cartwright Gardens , Bloomsbury","x":320.1219482421875,"y":5718.0,"id":"16","attributes":{"lon":"-0.125979","lat":"51.526357"},"color":"rgb(0,0,0)","size":10.0},{"label":"Park Lane , Hyde Park","x":-5142.060546875,"y":1135.0,"id":"111","attributes":{"lon":"-0.157275","lat":"51.510017"},"color":"rgb(0,0,0)","size":10.0},{"label":"Granby Street, Shoreditch","x":10170.0615234375,"y":5518.0,"id":"486","attributes":{"lon":"-0.069543","lat":"51.525645"},"color":"rgb(0,0,0)","size":10.0},{"label":"Marloes Road, Kensington","x":-11273.228515625,"y":-2661.0,"id":"384","attributes":{"lon":"-0.192404","lat":"51.496481"},"color":"rgb(0,0,0)","size":10.0},{"label":"Bishop\u0027s Bridge Road East, Bayswater","x":-9766.310546875,"y":3121.0,"id":"592","attributes":{"lon":"-0.18377","lat":"51.5171"},"color":"rgb(0,0,0)","size":10.0},{"label":"Murray Grove , Hoxton","x":6637.6904296875,"y":6989.0,"id":"63","attributes":{"lon":"-0.089782","lat":"51.53089"},"color":"rgb(0,0,0)","size":10.0},{"label":"Cantrell Road, Bow","x":18346.755859375,"y":4373.0,"id":"468","attributes":{"lon":"-0.022694","lat":"51.521564"},"color":"rgb(0,0,0)","size":10.0},{"label":"St. Martin\u0027s Street, West End","x":-328.7914733886719,"y":874.0,"id":"325","attributes":{"lon":"-0.129697","lat":"51.509087"},"color":"rgb(0,0,0)","size":10.0},{"label":"Tavistock Street, Covent Garden","x":1238.3397216796875,"y":1682.0,"id":"335","attributes":{"lon":"-0.120718","lat":"51.511968"},"color":"rgb(0,0,0)","size":10.0},{"label":"Great Percy Street, Clerkenwell","x":2152.543212890625,"y":6435.0,"id":"227","attributes":{"lon":"-0.11548","lat":"51.528915"},"color":"rgb(0,0,0)","size":10.0},{"label":"Waterloo Station 2, Waterloo","x":2511.03369140625,"y":-575.0,"id":"361","attributes":{"lon":"-0.113426","lat":"51.503919"},"color":"rgb(0,0,0)","size":10.0},{"label":"York Hall, Bethnal Green","x":12552.26171875,"y":6441.0,"id":"446","attributes":{"lon":"-0.055894","lat":"51.528936"},"color":"rgb(0,0,0)","size":10.0},{"label":"Nesham Street, Wapping","x":10629.6064453125,"y":325.0,"id":"46","attributes":{"lon":"-0.06691","lat":"51.507131"},"color":"rgb(0,0,0)","size":10.0},{"label":"Westferry DLR, Limehouse","x":17770.447265625,"y":934.0,"id":"510","attributes":{"lon":"-0.025996","lat":"51.509303"},"color":"rgb(0,0,0)","size":10.0},{"label":"Hampton Street, Walworth","x":4586.23046875,"y":-3869.0,"id":"152","attributes":{"lon":"-0.101536","lat":"51.49217"},"color":"rgb(0,0,0)","size":10.0},{"label":"Prince of Wales Drive, Battersea Park","x":-5472.6259765625,"y":-8639.0,"id":"756","attributes":{"lon":"-0.159169","lat":"51.475153"},"color":"rgb(0,0,0)","size":10.0},{"label":"Ravenscourt Park Station, Hammersmith","x":-19016.380859375,"y":-3294.0,"id":"668","attributes":{"lon":"-0.236769","lat":"51.494223"},"color":"rgb(0,0,0)","size":10.0},{"label":"Gloucester Road (North), Kensington","x":-9777.48046875,"y":-2256.0,"id":"97","attributes":{"lon":"-0.183834","lat":"51.497924"},"color":"rgb(0,0,0)","size":10.0},{"label":"Aintree Street, Fulham","x":-14339.5966796875,"y":-6994.0,"id":"616","attributes":{"lon":"-0.209973","lat":"51.481021"},"color":"rgb(0,0,0)","size":10.0},{"label":"Westfield Library Corner, Shepherd\u0027s Bush","x":-16840.65234375,"y":34.0,"id":"591","attributes":{"lon":"-0.224303","lat":"51.506093"},"color":"rgb(0,0,0)","size":10.0},{"label":"Devonshire Terrace, Bayswater","x":-9068.1787109375,"y":2106.0,"id":"397","attributes":{"lon":"-0.17977","lat":"51.51348"},"color":"rgb(0,0,0)","size":10.0},{"label":"Chepstow Villas, Notting Hill","x":-12870.2041015625,"y":1729.0,"id":"151","attributes":{"lon":"-0.201554","lat":"51.512136"},"color":"rgb(0,0,0)","size":10.0},{"label":"Clifton Street, Shoreditch","x":7809.6787109375,"y":4831.0,"id":"323","attributes":{"lon":"-0.083067","lat":"51.523196"},"color":"rgb(0,0,0)","size":10.0},{"label":"Northumberland Avenue, Strand","x":717.5333862304688,"y":223.0,"id":"354","attributes":{"lon":"-0.123702","lat":"51.506767"},"color":"rgb(0,0,0)","size":10.0},{"label":"The Tennis Courts, The Regent\u0027s Park","x":-4476.74072265625,"y":5440.0,"id":"315","attributes":{"lon":"-0.153463","lat":"51.525367"},"color":"rgb(0,0,0)","size":10.0},{"label":"Portland Place, Marylebone","x":-3036.4951171875,"y":4135.0,"id":"184","attributes":{"lon":"-0.145211","lat":"51.520715"},"color":"rgb(0,0,0)","size":10.0},{"label":"Spencer Park, Wandsworth Common","x":-8181.72607421875,"y":-13481.0,"id":"637","attributes":{"lon":"-0.174691","lat":"51.45787"},"color":"rgb(0,0,0)","size":10.0},{"label":"Southwark Station 2, Southwark","x":4020.39453125,"y":-540.0,"id":"421","attributes":{"lon":"-0.104778","lat":"51.504044"},"color":"rgb(0,0,0)","size":10.0},{"label":"Cloudesley Road, Angel","x":3279.1533203125,"y":7976.0,"id":"93","attributes":{"lon":"-0.109025","lat":"51.534408"},"color":"rgb(0,0,0)","size":10.0},{"label":"Greenberry Street, St.John\u0027s Wood","x":-7122.13671875,"y":7458.0,"id":"590","attributes":{"lon":"-0.16862","lat":"51.53256"},"color":"rgb(0,0,0)","size":10.0},{"label":"Grosvenor Road, Pimlico","x":-2512.1982421875,"y":-5779.0,"id":"245","attributes":{"lon":"-0.142207","lat":"51.485357"},"color":"rgb(0,0,0)","size":10.0},{"label":"Percival Street, Finsbury","x":4468.9443359375,"y":5660.0,"id":"544","attributes":{"lon":"-0.102208","lat":"51.526153"},"color":"rgb(0,0,0)","size":10.0},{"label":"Campden Hill Road, Notting Hill","x":-12425.1455078125,"y":172.0,"id":"212","attributes":{"lon":"-0.199004","lat":"51.506584"},"color":"rgb(0,0,0)","size":10.0},{"label":"William Morris Way, Sands End","x":-9861.955078125,"y":-10413.0,"id":"628","attributes":{"lon":"-0.184318","lat":"51.468819"},"color":"rgb(0,0,0)","size":10.0},{"label":"King Edward Walk, Waterloo","x":3129.927490234375,"y":-2305.0,"id":"371","attributes":{"lon":"-0.10988","lat":"51.49775"},"color":"rgb(0,0,0)","size":10.0},{"label":"Borough Road, Elephant \u0026 Castle","x":4777.5185546875,"y":-1983.0,"id":"92","attributes":{"lon":"-0.10044","lat":"51.498898"},"color":"rgb(0,0,0)","size":10.0},{"label":"Upper Bank Street, Canary Wharf","x":19222.5625,"y":-810.0,"id":"570","attributes":{"lon":"-0.017676","lat":"51.503083"},"color":"rgb(0,0,0)","size":10.0},{"label":"Marylebone Lane, Marylebone","x":-3541.593505859375,"y":2464.0,"id":"301","attributes":{"lon":"-0.148105","lat":"51.514759"},"color":"rgb(0,0,0)","size":10.0},{"label":"Storey\u0027s Gate, Westminster","x":-328.96600341796875,"y":-1477.0,"id":"762","attributes":{"lon":"-0.129698","lat":"51.500703"},"color":"rgb(0,0,0)","size":10.0},{"label":"Houghton Street, Strand","x":1928.44287109375,"y":2145.0,"id":"256","attributes":{"lon":"-0.116764","lat":"51.51362"},"color":"rgb(0,0,0)","size":10.0},{"label":"Ebury Bridge, Pimlico","x":-3730.263671875,"y":-4340.0,"id":"424","attributes":{"lon":"-0.149186","lat":"51.490491"},"color":"rgb(0,0,0)","size":10.0},{"label":"Westbourne Park Road, Portobello","x":-12774.3857421875,"y":3337.0,"id":"758","attributes":{"lon":"-0.201005","lat":"51.51787"},"color":"rgb(0,0,0)","size":10.0},{"label":"Hatton Garden, Holborn","x":3453.16259765625,"y":3605.0,"id":"67","attributes":{"lon":"-0.108028","lat":"51.518825"},"color":"rgb(0,0,0)","size":10.0},{"label":"Crabtree Lane, Fulham","x":-15975.494140625,"y":-6455.0,"id":"655","attributes":{"lon":"-0.219346","lat":"51.482944"},"color":"rgb(0,0,0)","size":10.0},{"label":"Waterloo Place, St. James\u0027s","x":-691.121826171875,"y":186.0,"id":"160","attributes":{"lon":"-0.131773","lat":"51.506633"},"color":"rgb(0,0,0)","size":10.0},{"label":"Drury Lane, Covent Garden","x":976.36572265625,"y":2468.0,"id":"18","attributes":{"lon":"-0.122219","lat":"51.51477"},"color":"rgb(0,0,0)","size":10.0},{"label":"Royal College Street, Camden Town","x":-1071.4290771484375,"y":8497.0,"id":"362","attributes":{"lon":"-0.133952","lat":"51.536264"},"color":"rgb(0,0,0)","size":10.0},{"label":"Gloucester Terrace, Bayswater","x":-10521.689453125,"y":3351.0,"id":"176","attributes":{"lon":"-0.188098","lat":"51.517919"},"color":"rgb(0,0,0)","size":10.0},{"label":"Lightermans Road, Millwall","x":18789.544921875,"y":-1943.0,"id":"475","attributes":{"lon":"-0.020157","lat":"51.499041"},"color":"rgb(0,0,0)","size":10.0},{"label":"Eel Brook Common, Walham Green","x":-11421.5810546875,"y":-8329.0,"id":"618","attributes":{"lon":"-0.193254","lat":"51.476259"},"color":"rgb(0,0,0)","size":10.0},{"label":"Kennington Road  , Vauxhall","x":2953.82373046875,"y":-2875.0,"id":"235","attributes":{"lon":"-0.110889","lat":"51.495718"},"color":"rgb(0,0,0)","size":10.0},{"label":"Westfield Southern Terrace ,Shepherd\u0027s Bush","x":-15799.390625,"y":80.0,"id":"571","attributes":{"lon":"-0.218337","lat":"51.506256"},"color":"rgb(0,0,0)","size":10.0},{"label":"Grenfell Road, Avondale","x":-15175.435546875,"y":1943.0,"id":"754","attributes":{"lon":"-0.214762","lat":"51.5129"},"color":"rgb(0,0,0)","size":10.0},{"label":"Preston\u0027s Road, Cubitt Town","x":20710.28125,"y":-1874.0,"id":"563","attributes":{"lon":"-0.009152","lat":"51.499286"},"color":"rgb(0,0,0)","size":10.0},{"label":"Warwick Avenue Station, Maida Vale","x":-9779.5751953125,"y":4872.0,"id":"47","attributes":{"lon":"-0.183846","lat":"51.523344"},"color":"rgb(0,0,0)","size":10.0},{"label":"Lansdowne Road, Ladbroke Grove","x":-13565.01953125,"y":423.0,"id":"622","attributes":{"lon":"-0.205535","lat":"51.507481"},"color":"rgb(0,0,0)","size":10.0},{"label":"Here East North, Queen Elizabeth Olympic Park","x":18362.115234375,"y":11996.0,"id":"812","attributes":{"lon":"-0.022606","lat":"51.548731"},"color":"rgb(0,0,0)","size":10.0},{"label":"Gas Holders, Battersea Park","x":-3498.309326171875,"y":-7850.0,"id":"834","attributes":{"lon":"-0.147857","lat":"51.477966"},"color":"rgb(0,0,0)","size":10.0},{"label":"Doddington Grove, Kennington","x":4331.412109375,"y":-5338.0,"id":"580","attributes":{"lon":"-0.102996","lat":"51.486929"},"color":"rgb(0,0,0)","size":10.0},{"label":"Elysium Place, Fulham","x":-13967.6669921875,"y":-9780.0,"id":"617","attributes":{"lon":"-0.207842","lat":"51.471079"},"color":"rgb(0,0,0)","size":10.0},{"label":"Queensbridge Road, Haggerston","x":10104.2626953125,"y":7820.0,"id":"536","attributes":{"lon":"-0.06992","lat":"51.53385"},"color":"rgb(0,0,0)","size":10.0},{"label":"Clements Road, Bermondsey","x":11539.2724609375,"y":-2964.0,"id":"687","attributes":{"lon":"-0.061698","lat":"51.4954"},"color":"rgb(0,0,0)","size":10.0},{"label":"Upcerne Road, West Chelsea","x":-9533.3095703125,"y":-7793.0,"id":"745","attributes":{"lon":"-0.182435","lat":"51.478169"},"color":"rgb(0,0,0)","size":10.0},{"label":"Wardour Street, Soho","x":-940.3548583984375,"y":1835.0,"id":"192","attributes":{"lon":"-0.133201","lat":"51.512515"},"color":"rgb(0,0,0)","size":10.0},{"label":"Holden Street, Battersea","x":-5308.7392578125,"y":-10421.0,"id":"627","attributes":{"lon":"-0.15823","lat":"51.46879"},"color":"rgb(0,0,0)","size":10.0},{"label":"Carey Street, Holborn","x":2628.494384765625,"y":2535.0,"id":"232","attributes":{"lon":"-0.112753","lat":"51.51501"},"color":"rgb(0,0,0)","size":10.0},{"label":"The Vale, Chelsea","x":-8230.595703125,"y":-5845.0,"id":"755","attributes":{"lon":"-0.174971","lat":"51.485121"},"color":"rgb(0,0,0)","size":10.0},{"label":"Sirdar Road, Avondale","x":-15146.11328125,"y":1390.0,"id":"740","attributes":{"lon":"-0.214594","lat":"51.510928"},"color":"rgb(0,0,0)","size":10.0},{"label":"Southerton Road, Hammersmith","x":-17518.712890625,"y":-3216.0,"id":"598","attributes":{"lon":"-0.228188","lat":"51.494499"},"color":"rgb(0,0,0)","size":10.0},{"label":"Lord\u0027s, St. John\u0027s Wood","x":-7640.84814453125,"y":6431.0,"id":"363","attributes":{"lon":"-0.171592","lat":"51.5289"},"color":"rgb(0,0,0)","size":10.0},{"label":"York Way, Kings Cross","x":414.0206604003906,"y":9993.0,"id":"836","attributes":{"lon":"-0.125441","lat":"51.541596"},"color":"rgb(0,0,0)","size":10.0},{"label":"Paddington Street, Marylebone","x":-4692.8125,"y":4098.0,"id":"56","attributes":{"lon":"-0.154701","lat":"51.520583"},"color":"rgb(0,0,0)","size":10.0},{"label":"Bethnal Green Garden, Bethnal Green","x":12653.83984375,"y":5528.0,"id":"444","attributes":{"lon":"-0.055312","lat":"51.52568"},"color":"rgb(0,0,0)","size":10.0},{"label":"Limburg Road, Clapham Junction","x":-6542.16357421875,"y":-12345.0,"id":"777","attributes":{"lon":"-0.165297","lat":"51.461923"},"color":"rgb(0,0,0)","size":10.0},{"label":"George Row, Bermondsey","x":10268.1494140625,"y":-2071.0,"id":"840","attributes":{"lon":"-0.068981","lat":"51.498585"},"color":"rgb(0,0,0)","size":10.0},{"label":"Globe Town Market, Bethnal Green","x":14008.9130859375,"y":6422.0,"id":"577","attributes":{"lon":"-0.047548","lat":"51.528869"},"color":"rgb(0,0,0)","size":10.0},{"label":"Bath Street, St. Luke\u0027s","x":6451.8125,"y":5587.0,"id":"119","attributes":{"lon":"-0.090847","lat":"51.525893"},"color":"rgb(0,0,0)","size":10.0},{"label":"Upper Grosvenor Street, Mayfair","x":-4877.11962890625,"y":1166.0,"id":"389","attributes":{"lon":"-0.155757","lat":"51.51013"},"color":"rgb(0,0,0)","size":10.0},{"label":"Albert Gate, Hyde Park","x":-5348.18359375,"y":-846.0,"id":"303","attributes":{"lon":"-0.158456","lat":"51.502953"},"color":"rgb(0,0,0)","size":10.0},{"label":"Lambeth Road, Vauxhall","x":1717.258056640625,"y":-3109.0,"id":"139","attributes":{"lon":"-0.117974","lat":"51.494881"},"color":"rgb(0,0,0)","size":10.0},{"label":"Doric Way , Somers Town","x":-774.3740234375,"y":6412.0,"id":"25","attributes":{"lon":"-0.13225","lat":"51.528833"},"color":"rgb(0,0,0)","size":10.0},{"label":"Clifton Road, Maida Vale","x":-9037.1123046875,"y":5498.0,"id":"255","attributes":{"lon":"-0.179592","lat":"51.525575"},"color":"rgb(0,0,0)","size":10.0},{"label":"Great Suffolk Street, The Borough","x":4803.34912109375,"y":-1189.0,"id":"645","attributes":{"lon":"-0.100292","lat":"51.501732"},"color":"rgb(0,0,0)","size":10.0},{"label":"Christian Street, Whitechapel","x":11111.3173828125,"y":1957.0,"id":"489","attributes":{"lon":"-0.06415","lat":"51.51295"},"color":"rgb(0,0,0)","size":10.0},{"label":"Godliman Street, St. Paul\u0027s","x":5004.23681640625,"y":1826.0,"id":"48","attributes":{"lon":"-0.099141","lat":"51.512484"},"color":"rgb(0,0,0)","size":10.0},{"label":"Holland Park, Kensington","x":-12728.4833984375,"y":-1024.0,"id":"398","attributes":{"lon":"-0.200742","lat":"51.502319"},"color":"rgb(0,0,0)","size":10.0},{"label":"Stonecutter Street, Holborn","x":3934.5244140625,"y":2759.0,"id":"112","attributes":{"lon":"-0.10527","lat":"51.515809"},"color":"rgb(0,0,0)","size":10.0},{"label":"Shouldham Street, Marylebone","x":-6247.5517578125,"y":3399.0,"id":"396","attributes":{"lon":"-0.163609","lat":"51.51809"},"color":"rgb(0,0,0)","size":10.0},{"label":"Beryl Road, Hammersmith","x":-16518.291015625,"y":-4998.0,"id":"686","attributes":{"lon":"-0.222456","lat":"51.488144"},"color":"rgb(0,0,0)","size":10.0},{"label":"Harrington Square 2, Camden Town","x":-1997.500732421875,"y":7694.0,"id":"425","attributes":{"lon":"-0.139258","lat":"51.533403"},"color":"rgb(0,0,0)","size":10.0},{"label":"West Kensington Station, West Kensington","x":-13651.2392578125,"y":-4234.0,"id":"660","attributes":{"lon":"-0.206029","lat":"51.49087"},"color":"rgb(0,0,0)","size":10.0},{"label":"Birkenhead Street, King\u0027s Cross","x":962.403076171875,"y":6795.0,"id":"798","attributes":{"lon":"-0.122299","lat":"51.530199"},"color":"rgb(0,0,0)","size":10.0},{"label":"Crawford Street, Marylebone","x":-5126.00341796875,"y":4007.0,"id":"43","attributes":{"lon":"-0.157183","lat":"51.52026"},"color":"rgb(0,0,0)","size":10.0},{"label":"Ranelagh Gardens, Fulham","x":-13790.5166015625,"y":-10755.0,"id":"765","attributes":{"lon":"-0.206827","lat":"51.467601"},"color":"rgb(0,0,0)","size":10.0},{"label":"Maplin Street, Mile End","x":16675.951171875,"y":5478.0,"id":"492","attributes":{"lon":"-0.032267","lat":"51.525501"},"color":"rgb(0,0,0)","size":10.0},{"label":"Tooley Street, Bermondsey","x":8411.29296875,"y":-695.0,"id":"278","attributes":{"lon":"-0.07962","lat":"51.503493"},"color":"rgb(0,0,0)","size":10.0},{"label":"Vauxhall Bridge , Pimlico","x":-270.1484069824219,"y":-4936.0,"id":"146","attributes":{"lon":"-0.129361","lat":"51.488365"},"color":"rgb(0,0,0)","size":10.0},{"label":"St. John\u0027s Park, Cubitt Town","x":20648.49609375,"y":-2668.0,"id":"504","attributes":{"lon":"-0.009506","lat":"51.496454"},"color":"rgb(0,0,0)","size":10.0},{"label":"Copper Box Arena, Queen Elizabeth Olympic Park","x":18722.349609375,"y":10923.0,"id":"788","attributes":{"lon":"-0.020542","lat":"51.544909"},"color":"rgb(0,0,0)","size":10.0},