{"nodes":[{"label":"Eccleston Place, Victoria","x":-3457.64306640625,"y":-3370.0,"id":"167","attributes":{"lon":"-0.147624","lat":"51.49395"},"color":"rgb(0,0,0)","size":10.0},{"label":"St. Katharine\u0027s Way, Tower","x":9995.703125,"y":-77.0,"id":"452","attributes":{"lon":"-0.070542","lat":"51.505697"},"color":"rgb(0,0,0)","size":10.0},{"label":"Lower Marsh, Waterloo","x":2422.02197265625,"y":-1635.0,"id":"347","attributes":{"lon":"-0.113936","lat":"51.500139"},"color":"rgb(0,0,0)","size":10.0},{"label":"Bancroft Road, Bethnal Green","x":14066.5087890625,"y":5629.0,"id":"520","attributes":{"lon":"-0.047218","lat":"51.526041"},"color":"rgb(0,0,0)","size":10.0},{"label":"St. John Street, Finsbury","x":4029.8193359375,"y":6280.0,"id":"123","attributes":{"lon":"-0.104724","lat":"51.52836"},"color":"rgb(0,0,0)","size":10.0},{"label":"Eaton Square (South), Belgravia","x":-4558.771484375,"y":-3199.0,"id":"423","attributes":{"lon":"-0.153933","lat":"51.494561"},"color":"rgb(0,0,0)","size":10.0},{"label":"Howick Place, Westminster","x":-1905.8709716796875,"y":-2584.0,"id":"360","attributes":{"lon":"-0.138733","lat":"51.496753"},"color":"rgb(0,0,0)","size":10.0},{"label":"Victory Place, Walworth","x":6261.3974609375,"y":-3691.0,"id":"820","attributes":{"lon":"-0.091938","lat":"51.492807"},"color":"rgb(0,0,0)","size":10.0},{"label":"Great Percy Street, Clerkenwell","x":2152.543212890625,"y":6435.0,"id":"227","attributes":{"lon":"-0.11548","lat":"51.528915"},"color":"rgb(0,0,0)","size":10.0},{"label":"Rossmore Road, Marylebone","x":-6321.37939453125,"y":5391.0,"id":"760","attributes":{"lon":"-0.164032","lat":"51.525194"},"color":"rgb(0,0,0)","size":10.0},{"label":"Knightsbridge, Hyde Park","x":-4805.91015625,"y":-901.0,"id":"222","attributes":{"lon":"-0.155349","lat":"51.502757"},"color":"rgb(0,0,0)","size":10.0},{"label":"Addison Road, Holland Park","x":-14508.544921875,"y":-497.0,"id":"606","attributes":{"lon":"-0.210941","lat":"51.504199"},"color":"rgb(0,0,0)","size":10.0},{"label":"Aintree Street, Fulham","x":-14339.5966796875,"y":-6994.0,"id":"616","attributes":{"lon":"-0.209973","lat":"51.481021"},"color":"rgb(0,0,0)","size":10.0},{"label":"Lincoln\u0027s Inn Fields, Holborn","x":1665.2471923828125,"y":2890.0,"id":"809","attributes":{"lon":"-0.118272","lat":"51.516277"},"color":"rgb(0,0,0)","size":10.0},{"label":"Heath Road, Battersea","x":-3269.147705078125,"y":-10455.0,"id":"677","attributes":{"lon":"-0.146544","lat":"51.468669"},"color":"rgb(0,0,0)","size":10.0},{"label":"Millharbour, Millwall","x":18929.521484375,"y":-2757.0,"id":"473","attributes":{"lon":"-0.019355","lat":"51.496137"},"color":"rgb(0,0,0)","size":10.0},{"label":"Good\u0027s Way, King\u0027s Cross","x":477.3761291503906,"y":8049.0,"id":"804","attributes":{"lon":"-0.125078","lat":"51.534667"},"color":"rgb(0,0,0)","size":10.0},{"label":"Holborn Circus, Holborn","x":3343.38134765625,"y":3359.0,"id":"66","attributes":{"lon":"-0.108657","lat":"51.51795"},"color":"rgb(0,0,0)","size":10.0},{"label":"Sun Street, Liverpool Street","x":7658.18408203125,"y":3937.0,"id":"408","attributes":{"lon":"-0.083935","lat":"51.520009"},"color":"rgb(0,0,0)","size":10.0},{"label":"Greenberry Street, St.John\u0027s Wood","x":-7122.13671875,"y":7458.0,"id":"590","attributes":{"lon":"-0.16862","lat":"51.53256"},"color":"rgb(0,0,0)","size":10.0},{"label":"Hibbert Street, Battersea","x":-9176.21484375,"y":-11436.0,"id":"673","attributes":{"lon":"-0.180389","lat":"51.46517"},"color":"rgb(0,0,0)","size":10.0},{"label":"Reardon Street, Wapping","x":12065.837890625,"y":273.0,"id":"488","attributes":{"lon":"-0.058681","lat":"51.506946"},"color":"rgb(0,0,0)","size":10.0},{"label":"Ebury Bridge, Pimlico","x":-3730.263671875,"y":-4340.0,"id":"424","attributes":{"lon":"-0.149186","lat":"51.490491"},"color":"rgb(0,0,0)","size":10.0},{"label":"Clerkenwell Green, Clerkenwell","x":4032.61181640625,"y":4849.0,"id":"135","attributes":{"lon":"-0.104708","lat":"51.52326"},"color":"rgb(0,0,0)","size":10.0},{"label":"Crosswall, Tower","x":8847.451171875,"y":1577.0,"id":"104","attributes":{"lon":"-0.077121","lat":"51.511594"},"color":"rgb(0,0,0)","size":10.0},{"label":"Bonner Gate, Victoria Park","x":13652.3427734375,"y":7696.0,"id":"502","attributes":{"lon":"-0.049591","lat":"51.53341"},"color":"rgb(0,0,0)","size":10.0},{"label":"Charlotte Terrace, Angel","x":2634.07958984375,"y":8533.0,"id":"697","attributes":{"lon":"-0.112721","lat":"51.536392"},"color":"rgb(0,0,0)","size":10.0},{"label":"Albany Street, The Regent\u0027s Park","x":-2906.46826171875,"y":6263.0,"id":"540","attributes":{"lon":"-0.144466","lat":"51.528302"},"color":"rgb(0,0,0)","size":10.0},{"label":"Kennington Road Post Office, Oval","x":2989.777587890625,"y":-5938.0,"id":"149","attributes":{"lon":"-0.110683","lat":"51.484788"},"color":"rgb(0,0,0)","size":10.0},{"label":"Broadcasting House, Marylebone","x":-2864.929443359375,"y":3406.0,"id":"6","attributes":{"lon":"-0.144228","lat":"51.518117"},"color":"rgb(0,0,0)","size":10.0},{"label":"Arlington Road, Camden Town","x":-3042.60400390625,"y":9533.0,"id":"545","attributes":{"lon":"-0.145246","lat":"51.539957"},"color":"rgb(0,0,0)","size":10.0},{"label":"Vincent Square, Westminster","x":-1590.8389892578125,"y":-3360.0,"id":"299","attributes":{"lon":"-0.136928","lat":"51.493985"},"color":"rgb(0,0,0)","size":10.0},{"label":"Fisherman\u0027s Walk West, Canary Wharf","x":18300.330078125,"y":73.0,"id":"448","attributes":{"lon":"-0.02296","lat":"51.50623"},"color":"rgb(0,0,0)","size":10.0},{"label":"Flamborough Street, Limehouse","x":15503.2646484375,"y":1935.0,"id":"480","attributes":{"lon":"-0.038986","lat":"51.512871"},"color":"rgb(0,0,0)","size":10.0},{"label":"Crawford Street, Marylebone","x":-5126.00341796875,"y":4007.0,"id":"43","attributes":{"lon":"-0.157183","lat":"51.52026"},"color":"rgb(0,0,0)","size":10.0},{"label":"Maida Vale, Maida Vale","x":-9716.7431640625,"y":6700.0,"id":"8","attributes":{"lon":"-0.183486","lat":"51.529857"},"color":"rgb(0,0,0)","size":10.0},{"label":"York Way, Kings Cross","x":414.0206604003906,"y":9993.0,"id":"836","attributes":{"lon":"-0.125441","lat":"51.541596"},"color":"rgb(0,0,0)","size":10.0},{"label":"Wandsworth Town Station, Wandsworth","x":-10404.578125,"y":-12642.0,"id":"621","attributes":{"lon":"-0.187427","lat":"51.460864"},"color":"rgb(0,0,0)","size":10.0},{"label":"Fire Brigade Pier, Vauxhall","x":1120.35546875,"y":-3441.0,"id":"387","attributes":{"lon":"-0.121394","lat":"51.493699"},"color":"rgb(0,0,0)","size":10.0},{"label":"Lancaster Drive, Blackwall","x":20836.642578125,"y":-793.0,"id":"526","attributes":{"lon":"-0.008428","lat":"51.503143"},"color":"rgb(0,0,0)","size":10.0},{"label":"Doric Way , Somers Town","x":-774.3740234375,"y":6412.0,"id":"25","attributes":{"lon":"-0.13225","lat":"51.528833"},"color":"rgb(0,0,0)","size":10.0},{"label":"Malet Street, Bloomsbury","x":-456.89862060546875,"y":4406.0,"id":"12","attributes":{"lon":"-0.130431","lat":"51.52168"},"color":"rgb(0,0,0)","size":10.0},{"label":"Jubilee Gardens, South Bank","x":1967.189208984375,"y":-374.0,"id":"252","attributes":{"lon":"-0.116542","lat":"51.504636"},"color":"rgb(0,0,0)","size":10.0},{"label":"St. John\u0027s Park, Cubitt Town","x":20648.49609375,"y":-2668.0,"id":"504","attributes":{"lon":"-0.009506","lat":"51.496454"},"color":"rgb(0,0,0)","size":10.0},{"label":"Panton Street, West End","x":-645.2196655273438,"y":1029.0,"id":"83","attributes":{"lon":"-0.13151","lat":"51.509639"},"color":"rgb(0,0,0)","size":10.0},{"label":"The Vale, Chelsea","x":-8230.595703125,"y":-5845.0,"id":"755","attributes":{"lon":"-0.174971","lat":"51.485121"},"color":"rgb(0,0,0)","size":10.0},{"label":"Bourne Street, Belgravia","x":-4436.59814453125,"y":-4209.0,"id":"259","attributes":{"lon":"-0.153233","lat":"51.490959"},"color":"rgb(0,0,0)","size":10.0},{"label":"Baker Street, Marylebone","x":-4948.50341796875,"y":3630.0,"id":"121","attributes":{"lon":"-0.156166","lat":"51.518913"},"color":"rgb(0,0,0)","size":10.0},{"label":"Hansard Mews, Holland Park","x":-15357.9970703125,"y":-608.0,"id":"527","attributes":{"lon":"-0.215808","lat":"51.503802"},"color":"rgb(0,0,0)","size":10.0},{"label":"Here East South, Queen Elizabeth Olympic Park","x":18712.751953125,"y":11379.0,"id":"816","attributes":{"lon":"-0.020597","lat":"51.546532"},"color":"rgb(0,0,0)","size":10.0},{"label":"Ossulston Street, Somers Town","x":-81.30377197265625,"y":6543.0,"id":"797","attributes":{"lon":"-0.128279","lat":"51.5293"},"color":"rgb(0,0,0)","size":10.0},{"label":"Finsbury Circus, Liverpool Street","x":7178.21875,"y":3114.0,"id":"55","attributes":{"lon":"-0.086685","lat":"51.517075"},"color":"rgb(0,0,0)","size":10.0},{"label":"Thessaly Road North, Nine Elms","x":-1914.24853515625,"y":-8044.0,"id":"1001","attributes":{"lon":"-0.138781","lat":"51.477273"},"color":"rgb(0,0,0)","size":10.0},{"label":"South Parade, Chelsea","x":-8277.544921875,"y":-4752.0,"id":"430","attributes":{"lon":"-0.17524","lat":"51.48902"},"color":"rgb(0,0,0)","size":10.0},{"label":"Stanhope Gate, Mayfair","x":-3988.572265625,"y":250.0,"id":"380","attributes":{"lon":"-0.150666","lat":"51.506864"},"color":"rgb(0,0,0)","size":10.0},{"label":"Elizabeth Bridge, Victoria","x":-3432.161376953125,"y":-3813.0,"id":"288","attributes":{"lon":"-0.147478","lat":"51.492369"},"color":"rgb(0,0,0)","size":10.0},{"label":"Sirdar Road, Avondale","x":-15146.11328125,"y":1390.0,"id":"740","attributes":{"lon":"-0.214594","lat":"51.510928"},"color":"rgb(0,0,0)","size":10.0},{"label":"Eel Brook Common, Walham Green","x":-11421.5810546875,"y":-8329.0,"id":"618","attributes":{"lon":"-0.193254","lat":"51.476259"},"color":"rgb(0,0,0)","size":10.0},{"label":"Peterborough Road, Sands End","x":-11948.6708984375,"y":-10351.0,"id":"648","attributes":{"lon":"-0.196274","lat":"51.46904"},"color":"rgb(0,0,0)","size":10.0},{"label":"Union Grove, Wandsworth Road","x":-1074.919677734375,"y":-9244.0,"id":"602","attributes":{"lon":"-0.133972","lat":"51.472993"},"color":"rgb(0,0,0)","size":10.0},{"label":"Serpentine Car Park, Hyde Park","x":-7897.0625,"y":-268.0,"id":"300","attributes":{"lon":"-0.17306","lat":"51.505014"},"color":"rgb(0,0,0)","size":10.0},{"label":"Paddington Green, Paddington","x":-8164.62158203125,"y":3992.0,"id":"370","attributes":{"lon":"-0.174593","lat":"51.520205"},"color":"rgb(0,0,0)","size":10.0},{"label":"Cartwright Gardens , Bloomsbury","x":320.1219482421875,"y":5718.0,"id":"16","attributes":{"lon":"-0.125979","lat":"51.526357"},"color":"rgb(0,0,0)","size":10.0},{"label":"Wright\u0027s Lane, Kensington","x":-11389.1181640625,"y":-1563.0,"id":"157","attributes":{"lon":"-0.193068","lat":"51.500397"},"color":"rgb(0,0,0)","size":10.0},{"label":"New Inn Yard, Shoreditch","x":8476.2197265625,"y":5204.0,"id":"58","attributes":{"lon":"-0.079248","lat":"51.524526"},"color":"rgb(0,0,0)","size":10.0},{"label":"Blackfriars Road, Southwark","x":4061.933349609375,"y":-143.0,"id":"792","attributes":{"lon":"-0.10454","lat":"51.505461"},"color":"rgb(0,0,0)","size":10.0},{"label":"Jubilee Plaza, Canary Wharf","x":18805.080078125,"y":-673.0,"id":"532","attributes":{"lon":"-0.020068","lat":"51.50357"},"color":"rgb(0,0,0)","size":10.0},{"label":"Guildhouse Street, Victoria","x":-2359.8310546875,"y":-3820.0,"id":"161","attributes":{"lon":"-0.141334","lat":"51.492345"},"color":"rgb(0,0,0)","size":10.0},{"label":"Geraldine Street, Elephant \u0026 Castle","x":3807.115234375,"y":-2760.0,"id":"297","attributes":{"lon":"-0.106","lat":"51.496127"},"color":"rgb(0,0,0)","size":10.0},{"label":"Westfield Ariel Way, White City","x":-16805.74609375,"y":894.0,"id":"566","attributes":{"lon":"-0.224103","lat":"51.509158"},"color":"rgb(0,0,0)","size":10.0},{"label":"Ackroyd Drive, Bow","x":17635.708984375,"y":4046.0,"id":"505","attributes":{"lon":"-0.026768","lat":"51.520398"},"color":"rgb(0,0,0)","size":10.0},{"label":"Phillimore Gardens, Kensington","x":-12175.5634765625,"y":-1785.0,"id":"2","attributes":{"lon":"-0.197574","lat":"51.499606"},"color":"rgb(0,0,0)","size":10.0},{"label":"Fore Street Avenue, Guildhall","x":6355.12158203125,"y":3400.0,"id":"838","attributes":{"lon":"-0.091401","lat":"51.518093"},"color":"rgb(0,0,0)","size":10.0},{"label":"St Mary\u0027s Hospital, Paddington","x":-7555.501953125,"y":3449.0,"id":"290","attributes":{"lon":"-0.171103","lat":"51.518268"},"color":"rgb(0,0,0)","size":10.0},{"label":"Cadogan Gardens, Chelsea","x":-5603.525390625,"y":-3787.0,"id":"395","attributes":{"lon":"-0.159919","lat":"51.492462"},"color":"rgb(0,0,0)","size":10.0},{"label":"Everington Street, Fulham","x":-15444.7392578125,"y":-6340.0,"id":"711","attributes":{"lon":"-0.216305","lat":"51.483356"},"color":"rgb(0,0,0)","size":10.0},{"label":"Lambeth Palace Road, Waterloo","x":1952.1793212890625,"y":-1649.0,"id":"815","attributes":{"lon":"-0.116628","lat":"51.500089"},"color":"rgb(0,0,0)","size":10.0},{"label":"Ilchester Gardens, Bayswater","x":-11021.2021484375,"y":1814.0,"id":"584","attributes":{"lon":"-0.19096","lat":"51.51244"},"color":"rgb(0,0,0)","size":10.0},{"label":"Lansdowne Road, Ladbroke Grove","x":-13565.01953125,"y":423.0,"id":"622","attributes":{"lon":"-0.205535","lat":"51.507481"},"color":"rgb(0,0,0)","size":10.0},{"label":"Royal Avenue 2, Chelsea","x":-6039.68310546875,"y":-4454.0,"id":"280","attributes":{"lon":"-0.162418","lat":"51.490083"},"color":"rgb(0,0,0)","size":10.0},{"label":"Gloucester Street, Pimlico","x":-2061.55419921875,"y":-4208.0,"id":"243","attributes":{"lon":"-0.139625","lat":"51.490962"},"color":"rgb(0,0,0)","size":10.0},{"label":"Claverton Street, Pimlico","x":-1793.4716796875,"y":-5924.0,"id":"291","attributes":{"lon":"-0.138089","lat":"51.484839"},"color":"rgb(0,0,0)","size":10.0},{"label":"Mallory Street, Marylebone","x":-6717.91845703125,"y":5351.0,"id":"208","attributes":{"lon":"-0.166304","lat":"51.525051"},"color":"rgb(0,0,0)","size":10.0},{"label":"Oxford Road, Putney","x":-14799.31640625,"y":-12662.0,"id":"743","attributes":{"lon":"-0.212607","lat":"51.460792"},"color":"rgb(0,0,0)","size":10.0},{"label":"Limerston Street, West Chelsea","x":-9316.015625,"y":-5714.0,"id":"573","attributes":{"lon":"-0.18119","lat":"51.485587"},"color":"rgb(0,0,0)","size":10.0},{"label":"Clapham Common Station, Clapham Common","x":-1991.04296875,"y":-12495.0,"id":"355","attributes":{"lon":"-0.139221","lat":"51.461388"},"color":"rgb(0,0,0)","size":10.0},{"label":"West Kensington Station, West Kensington","x":-13651.2392578125,"y":-4234.0,"id":"660","attributes":{"lon":"-0.206029","lat":"51.49087"},"color":"rgb(0,0,0)","size":10.0},{"label":"Ashley Crescent, Battersea","x":-4264.68359375,"y":-10871.0,"id":"670","attributes":{"lon":"-0.152248","lat":"51.467185"},"color":"rgb(0,0,0)","size":10.0},{"label":"Waterloo Bridge, South Bank","x":2470.89111328125,"y":-173.0,"id":"377","attributes":{"lon":"-0.113656","lat":"51.505354"},"color":"rgb(0,0,0)","size":10.0},{"label":"Upper Richmond Road, Putney","x":-14718.6826171875,"y":-12964.0,"id":"705","attributes":{"lon":"-0.212145","lat":"51.459715"},"color":"rgb(0,0,0)","size":10.0},{"label":"Empire Square, The Borough","x":6645.0205078125,"y":-1443.0,"id":"269","attributes":{"lon":"-0.08974","lat":"51.500823"},"color":"rgb(0,0,0)","size":10.0},{"label":"Vauxhall Walk, Vauxhall","x":1206.0511474609375,"y":-5003.0,"id":"437","attributes":{"lon":"-0.120903","lat":"51.488124"},"color":"rgb(0,0,0)","size":10.0},{"label":"Little Argyll Street, West End","x":-2375.364501953125,"y":2392.0,"id":"116","attributes":{"lon":"-0.141423","lat":"51.514499"},"color":"rgb(0,0,0)","size":10.0},{"label":"Walnut Tree Walk, Vauxhall","x":2932.00732421875,"y":-3444.0,"id":"91","attributes":{"lon":"-0.111014","lat":"51.493686"},"color":"rgb(0,0,0)","size":10.0},{"label":"Clifton Street, Shoreditch","x":7809.6787109375,"y":4831.0,"id":"323","attributes":{"lon":"-0.083067","lat":"51.523196"},"color":"rgb(0,0,0)","size":10.0},{"label":"Queen Mother Sports Centre, Victoria","x":-2119.32470703125,"y":-3476.0,"id":"320","attributes":{"lon":"-0.139956","lat":"51.493573"},"color":"rgb(0,0,0)","size":10.0},{"label":"Binfield Road, Stockwell","x":869.5515747070312,"y":-9379.0,"id":"772","attributes":{"lon":"-0.122831","lat":"51.472509"},"color":"rgb(0,0,0)","size":10.0},{"label":"Montserrat Road , Putney","x":-15312.966796875,"y":-11984.0,"id":"709","attributes":{"lon":"-0.21555","lat":"51.463211"},"color":"rgb(0,0,0)","size":10.0},{"label":"St. George\u0027s Square, Pimlico","x":-1365.16796875,"y":-4975.0,"id":"294","attributes":{"lon":"-0.135635","lat":"51.488226"},"color":"rgb(0,0,0)","size":10.0},{"label":"Portman Square, Marylebone","x":-4836.6279296875,"y":2870.0,"id":"514","attributes":{"lon":"-0.155525","lat":"51.516204"},"color":"rgb(0,0,0)","size":10.0},{"label":"Canada Water Station, Rotherhithe","x":13729.3115234375,"y":-2112.0,"id":"844","attributes":{"lon":"-0.04915","lat":"51.498439"},"color":"rgb(0,0,0)","size":10.0},{"label":"Watney Street, Shadwell","x":12417.34765625,"y":1562.0,"id":"552","attributes":{"lon":"-0.056667","lat":"51.511542"},"color":"rgb(0,0,0)","size":10.0},{"label":"Tanner Street, Bermondsey","x":8589.3173828125,"y":-1493.0,"id":"85","attributes":{"lon":"-0.0786","lat":"51.500647"},"color":"rgb(0,0,0)","size":10.0},{"label":"Buxton Street 1, Shoreditch","x":10289.9658203125,"y":4433.0,"id":"390","attributes":{"lon":"-0.068856","lat":"51.521776"},"color":"rgb(0,0,0)","size":10.0},{"label":"Natural History Museum, South Kensington","x":-8947.2275390625,"y":-2910.0,"id":"378","attributes":{"lon":"-0.179077","lat":"51.495592"},"color":"rgb(0,0,0)","size":10.0},{"label":"Saunders Ness Road, Cubitt Town","x":20736.634765625,"y":-5282.0,"id":"481","attributes":{"lon":"-0.009001","lat":"51.487129"},"color":"rgb(0,0,0)","size":10.0},{"label":"Endsleigh Gardens, Euston","x":-469.6395263671875,"y":5853.0,"id":"214","attributes":{"lon":"-0.130504","lat":"51.526838"},"color":"rgb(0,0,0)","size":10.0},{"label":"Grant Road West, Clapham Junction","x":-8152.05517578125,"y":-11647.0,"id":"1000","attributes":{"lon":"-0.174521","lat":"51.464416"},"color":"rgb(0,0,0)","size":10.0},{"label":"Waterloo Road, South Bank","x":2585.210205078125,"y":-311.0,"id":"173","attributes":{"lon":"-0.113001","lat":"51.50486"},"color":"rgb(0,0,0)","size":10.0},{"label":"Harrowby Street, Marylebone","x":-6351.9228515625,"y":3197.0,"id":"367","attributes":{"lon":"-0.164207","lat":"51.517372"},"color":"rgb(0,0,0)","size":10.0},{"label":"Morie Street, Wandsworth","x":-10885.7646484375,"y":-12897.0,"id":"629","attributes":{"lon":"-0.190184","lat":"51.459953"},"color":"rgb(0,0,0)","size":10.0},{"label":"Here East North, Queen Elizabeth Olympic Park","x":18362.115234375,"y":11996.0,"id":"812","attributes":{"lon":"-0.022606","lat":"51.548731"},"color":"rgb(0,0,0)","size":10.0},{"label":"Euston Road, Euston","x":-1150.841552734375,"y":5684.0,"id":"69","attributes":{"lon":"-0.134407","lat":"51.526236"},"color":"rgb(0,0,0)","size":10.0},{"label":"The Guildhall, Guildhall","x":6062.08056640625,"y":2738.0,"id":"120","attributes":{"lon":"-0.09308","lat":"51.515735"},"color":"rgb(0,0,0)","size":10.0},{"label":"Bayswater Road, Hyde Park","x":-8132.8564453125,"y":1672.0,"id":"153","attributes":{"lon":"-0.174411","lat":"51.511933"},"color":"rgb(0,0,0)","size":10.0},{"label":"Warren Street Station, Euston","x":-1781.25439453125,"y":5179.0,"id":"239","attributes":{"lon":"-0.138019","lat":"51.524438"},"color":"rgb(0,0,0)","size":10.0},{"label":"Borough High Street, The Borough","x":5810.05517578125,"y":-1480.0,"id":"125","attributes":{"lon":"-0.094524","lat":"51.500694"},"color":"rgb(0,0,0)","size":10.0},{"label":"Crabtree Lane, Fulham","x":-15975.494140625,"y":-6455.0,"id":"655","attributes":{"lon":"-0.219346","lat":"51.482944"},"color":"rgb(0,0,0)","size":10.0},{"label":"Ford Road, Old Ford","x":16533.18359375,"y":7445.0,"id":"517","attributes":{"lon":"-0.033085","lat":"51.532513"},"color":"rgb(0,0,0)","size":10.0},{"label":"Shadwell Station, Shadwell","x":12331.4775390625,"y":1435.0,"id":"449","attributes":{"lon":"-0.057159","lat":"51.511088"},"color":"rgb(0,0,0)","size":10.0},{"label":"Chesilton Road, Fulham","x":-13624.53515625,"y":-8486.0,"id":"727","attributes":{"lon":"-0.205876","lat":"51.475698"},"color":"rgb(0,0,0)","size":10.0},{"label":"Kennington Lane Tesco, Vauxhall","x":2121.3017578125,"y":-5368.0,"id":"305","attributes":{"lon":"-0.115659","lat":"51.486824"},"color":"rgb(0,0,0)","size":10.0},{"label":"Park Street, Bankside","x":6118.978515625,"y":1.0,"id":"10","attributes":{"lon":"-0.092754","lat":"51.505974"},"color":"rgb(0,0,0)","size":10.0},{"label":"Pennington Street, Wapping","x":10961.91796875,"y":743.0,"id":"490","attributes":{"lon":"-0.065006","lat":"51.508622"},"color":"rgb(0,0,0)","size":10.0},{"label":"Old Brompton Road, South Kensington","x":-9316.015625,"y":-4213.0,"id":"216","attributes":{"lon":"-0.18119","lat":"51.490945"},"color":"rgb(0,0,0)","size":10.0},{"label":"Cotton Garden Estate, Kennington","x":3750.7412109375,"y":-4265.0,"id":"62","attributes":{"lon":"-0.106323","lat":"51.490757"},"color":"rgb(0,0,0)","size":10.0},{"label":"Chrisp Street Market, Poplar","x":19787.69921875,"y":1466.0,"id":"516","attributes":{"lon":"-0.014438","lat":"51.5112"},"color":"rgb(0,0,0)","size":10.0},{"label":"Star Road, West Kensington","x":-13520.33984375,"y":-5250.0,"id":"720","attributes":{"lon":"-0.205279","lat":"51.487244"},"color":"rgb(0,0,0)","size":10.0},{"label":"Haggerston Road, Haggerston","x":9342.6005859375,"y":9357.0,"id":"749","attributes":{"lon":"-0.074284","lat":"51.539328"},"color":"rgb(0,0,0)","size":10.0},{"label":"Buckingham Gate, Westminster","x":-1677.4073486328125,"y":-1992.0,"id":"646","attributes":{"lon":"-0.137424","lat":"51.498865"},"color":"rgb(0,0,0)","size":10.0},{"label":"Clapham Road, Lingham Street, Stockwell","x":723.1184692382812,"y":-9681.0,"id":"814","attributes":{"lon":"-0.12367","lat":"51.471433"},"color":"rgb(0,0,0)","size":10.0},{"label":"Aberdeen Place, St. John\u0027s Wood","x":-8456.96484375,"y":5288.0,"id":"394","attributes":{"lon":"-0.176268","lat":"51.524826"},"color":"rgb(0,0,0)","size":10.0},{"label":"Ingrave Street, Clapham Junction","x":-7763.19580078125,"y":-10796.0,"id":"744","attributes":{"lon":"-0.172293","lat":"51.467454"},"color":"rgb(0,0,0)","size":10.0},{"label":"Kensington Olympia Station, Olympia","x":-14255.99609375,"y":-2191.0,"id":"293","attributes":{"lon":"-0.209494","lat":"51.498157"},"color":"rgb(0,0,0)","size":10.0},{"label":"Lansdowne Drive, Hackney Central","x":11345.8896484375,"y":9499.0,"id":"21","attributes":{"lon":"-0.062806","lat":"51.539834"},"color":"rgb(0,0,0)","size":10.0},{"label":"East Road, Hoxton","x":7043.13037109375,"y":6367.0,"id":"50","attributes":{"lon":"-0.087459","lat":"51.528673"},"color":"rgb(0,0,0)","size":10.0},{"label":"Teviot Street, Poplar","x":20272.203125,"y":3601.0,"id":"519","attributes":{"lon":"-0.011662","lat":"51.518811"},"color":"rgb(0,0,0)","size":10.0},{"label":"Garnet Street, Shadwell","x":12679.1474609375,"y":694.0,"id":"453","attributes":{"lon":"-0.055167","lat":"51.508447"},"color":"rgb(0,0,0)","size":10.0},{"label":"Denyer Street, Knightsbridge","x":-6507.955078125,"y":-3473.0,"id":"209","attributes":{"lon":"-0.165101","lat":"51.493583"},"color":"rgb(0,0,0)","size":10.0},{"label":"Old Quebec Street, Marylebone","x":-5314.67333984375,"y":2413.0,"id":"99","attributes":{"lon":"-0.158264","lat":"51.514577"},"color":"rgb(0,0,0)","size":10.0},{"label":"Pont Street, Knightsbridge","x":-5827.6259765625,"y":-2547.0,"id":"143","attributes":{"lon":"-0.161203","lat":"51.496886"},"color":"rgb(0,0,0)","size":10.0},{"label":"Shoreditch Court, Haggerston","x":10032.87890625,"y":9288.0,"id":"698","attributes":{"lon":"-0.070329","lat":"51.539083"},"color":"rgb(0,0,0)","size":10.0},{"label":"Thurtle Road, Haggerston","x":9762.00390625,"y":8080.0,"id":"463","attributes":{"lon":"-0.071881","lat":"51.534776"},"color":"rgb(0,0,0)","size":10.0},{"label":"Newgate Street , St. Paul\u0027s","x":5055.02587890625,"y":2649.0,"id":"71","attributes":{"lon":"-0.09885","lat":"51.515418"},"color":"rgb(0,0,0)","size":10.0},{"label":"Bunhill Row, Moorgate","x":6619.3642578125,"y":4175.0,"id":"331","attributes":{"lon":"-0.089887","lat":"51.520858"},"color":"rgb(0,0,0)","size":10.0},{"label":"Ormonde Gate, Chelsea","x":-5925.71337890625,"y":-5048.0,"id":"747","attributes":{"lon":"-0.161765","lat":"51.487964"},"color":"rgb(0,0,0)","size":10.0},{"label":"Shoreditch High Street, Shoreditch","x":8671.34765625,"y":5723.0,"id":"39","attributes":{"lon":"-0.07813","lat":"51.526377"},"color":"rgb(0,0,0)","size":10.0},{"label":"Podium, Queen Elizabeth Olympic Park","x":20232.583984375,"y":9186.0,"id":"789","attributes":{"lon":"-0.011889","lat":"51.538718"},"color":"rgb(0,0,0)","size":10.0},{"label":"Bishop\u0027s Avenue, Fulham","x":-15173.166015625,"y":-9232.0,"id":"681","attributes":{"lon":"-0.214749","lat":"51.473036"},"color":"rgb(0,0,0)","size":10.0},{"label":"Canton Street, Poplar","x":17835.025390625,"y":1638.0,"id":"487","attributes":{"lon":"-0.025626","lat":"51.511811"},"color":"rgb(0,0,0)","size":10.0},{"label":"Clinton Road, Mile End","x":16021.4521484375,"y":5601.0,"id":"522","attributes":{"lon":"-0.036017","lat":"51.525941"},"color":"rgb(0,0,0)","size":10.0},{"label":"Rifle Place, Avondale","x":-15394.2998046875,"y":912.0,"id":"771","attributes":{"lon":"-0.216016","lat":"51.509224"},"color":"rgb(0,0,0)","size":10.0},{"label":"Albert Square, Stockwell","x":1668.039794921875,"y":-8236.0,"id":"802","attributes":{"lon":"-0.118256","lat":"51.47659"},"color":"rgb(0,0,0)","size":10.0},{"label":"Watney Market, Stepney","x":12593.80078125,"y":2314.0,"id":"513","attributes":{"lon":"-0.055656","lat":"51.514222"},"color":"rgb(0,0,0)","size":10.0},{"label":"Thorndike Close, West Chelsea","x":-9780.796875,"y":-7029.0,"id":"651","attributes":{"lon":"-0.183853","lat":"51.480898"},"color":"rgb(0,0,0)","size":10.0},{"label":"Holy Trinity Brompton, Knightsbridge","x":-7173.97265625,"y":-2500.0,"id":"150","attributes":{"lon":"-0.168917","lat":"51.497056"},"color":"rgb(0,0,0)","size":10.0},{"label":"Waterloo Station 3, Waterloo","x":2616.1025390625,"y":-611.0,"id":"154","attributes":{"lon":"-0.112824","lat":"51.503791"},"color":"rgb(0,0,0)","size":10.0},{"label":"Wendon Street, Old Ford","x":17724.021484375,"y":8434.0,"id":"721","attributes":{"lon":"-0.026262","lat":"51.536039"},"color":"rgb(0,0,0)","size":10.0},{"label":"Bell Street , Marylebone","x":-6637.2841796875,"y":4504.0,"id":"182","attributes":{"lon":"-0.165842","lat":"51.522029"},"color":"rgb(0,0,0)","size":10.0},{"label":"Brick Lane Market, Shoreditch","x":9801.796875,"y":4669.0,"id":"399","attributes":{"lon":"-0.071653","lat":"51.522617"},"color":"rgb(0,0,0)","size":10.0},{"label":"Clarendon Road, Avondale","x":-14622.3408203125,"y":2036.0,"id":"663","attributes":{"lon":"-0.211593","lat":"51.51323"},"color":"rgb(0,0,0)","size":10.0},{"label":"Grant Road Central, Clapham Junction","x":-8012.080078125,"y":-11580.0,"id":"672","attributes":{"lon":"-0.173719","lat":"51.464655"},"color":"rgb(0,0,0)","size":10.0},{"label":"Edgware Road Station, Marylebone","x":-7323.54736328125,"y":3925.0,"id":"410","attributes":{"lon":"-0.169774","lat":"51.519968"},"color":"rgb(0,0,0)","size":10.0},{"label":"Battersea Church Road, Battersea","x":-8121.6865234375,"y":-8131.0,"id":"700","attributes":{"lon":"-0.174347","lat":"51.476964"},"color":"rgb(0,0,0)","size":10.0},{"label":"Chadwell Street, Angel","x":3735.90576171875,"y":6884.0,"id":"254","attributes":{"lon":"-0.106408","lat":"51.530515"},"color":"rgb(0,0,0)","size":10.0},{"label":"Storey\u0027s Gate, Westminster","x":-328.96600341796875,"y":-1477.0,"id":"762","attributes":{"lon":"-0.129698","lat":"51.500703"},"color":"rgb(0,0,0)","size":10.0},{"label":"Bricklayers Arms, Borough","x":7330.23681640625,"y":-3059.0,"id":"94","attributes":{"lon":"-0.085814","lat":"51.495061"},"color":"rgb(0,0,0)","size":10.0},{"label":"Durant Street, Bethnal Green","x":10866.9716796875,"y":6370.0,"id":"702","attributes":{"lon":"-0.06555","lat":"51.528681"},"color":"rgb(0,0,0)","size":10.0},{"label":"Hampstead Road, Euston","x":-1818.25537109375,"y":5489.0,"id":"98","attributes":{"lon":"-0.138231","lat":"51.525542"},"color":"rgb(0,0,0)","size":10.0},{"label":"King Edward Walk, Waterloo","x":3129.927490234375,"y":-2305.0,"id":"371","attributes":{"lon":"-0.10988","lat":"51.49775"},"color":"rgb(0,0,0)","size":10.0},{"label":"Bevington Road West, North Kensington","x":-14150.228515625,"y":4271.0,"id":"807","attributes":{"lon":"-0.208888","lat":"51.5212"},"color":"rgb(0,0,0)","size":10.0},{"label":"Tavistock Place, Bloomsbury","x":751.21826171875,"y":5688.0,"id":"89","attributes":{"lon":"-0.123509","lat":"51.52625"},"color":"rgb(0,0,0)","size":10.0},{"label":"Cromer Street, Bloomsbury","x":1440.7978515625,"y":6257.0,"id":"793","attributes":{"lon":"-0.119558","lat":"51.528279"},"color":"rgb(0,0,0)","size":10.0},{"label":"St John\u0027s Crescent, Brixton","x":2554.143310546875,"y":-11138.0,"id":"831","attributes":{"lon":"-0.113179","lat":"51.466232"},"color":"rgb(0,0,0)","size":10.0},{"label":"Victoria Rise, Clapham Common","x":-3489.05908203125,"y":-12498.0,"id":"794","attributes":{"lon":"-0.147804","lat":"51.461376"},"color":"rgb(0,0,0)","size":10.0},{"label":"Wapping High Street, Wapping","x":10444.6015625,"y":-299.0,"id":"134","attributes":{"lon":"-0.06797","lat":"51.504904"},"color":"rgb(0,0,0)","size":10.0},{"label":"Moor Street, Soho","x":-400.8735656738281,"y":2119.0,"id":"386","attributes":{"lon":"-0.13011","lat":"51.513527"},"color":"rgb(0,0,0)","size":10.0},{"label":"Michael Road, Walham Green","x":-10706.1708984375,"y":-8039.0,"id":"731","attributes":{"lon":"-0.189155","lat":"51.477292"},"color":"rgb(0,0,0)","size":10.0},{"label":"Chancery Lane, Holborn","x":2889.595703125,"y":2328.0,"id":"82","attributes":{"lon":"-0.111257","lat":"51.514274"},"color":"rgb(0,0,0)","size":10.0},{"label":"Preston\u0027s Road, Cubitt Town","x":20710.28125,"y":-1874.0,"id":"563","attributes":{"lon":"-0.009152","lat":"51.499286"},"color":"rgb(0,0,0)","size":10.0},{"label":"Wells Street, Fitzrovia","x":-1790.504638671875,"y":3189.0,"id":"313","attributes":{"lon":"-0.138072","lat":"51.517344"},"color":"rgb(0,0,0)","size":10.0},{"label":"Clifford Street, Mayfair","x":-2536.283935546875,"y":1315.0,"id":"391","attributes":{"lon":"-0.142345","lat":"51.510662"},"color":"rgb(0,0,0)","size":10.0},{"label":"Fawcett Close, Battersea","x":-8145.77197265625,"y":-10317.0,"id":"642","attributes":{"lon":"-0.174485","lat":"51.469161"},"color":"rgb(0,0,0)","size":10.0},{"label":"Kensington Gore, Knightsbridge","x":-8873.7490234375,"y":-1273.0,"id":"258","attributes":{"lon":"-0.178656","lat":"51.501432"},"color":"rgb(0,0,0)","size":10.0},{"label":"Long Lane , Bermondsey","x":7356.06787109375,"y":-1933.0,"id":"308","attributes":{"lon":"-0.085666","lat":"51.499075"},"color":"rgb(0,0,0)","size":10.0},{"label":"Furze Green, Bow","x":18582.201171875,"y":3728.0,"id":"499","attributes":{"lon":"-0.021345","lat":"51.519265"},"color":"rgb(0,0,0)","size":10.0},{"label":"Sutton Street, Shadwell","x":12959.970703125,"y":1429.0,"id":"511","attributes":{"lon":"-0.053558","lat":"51.511066"},"color":"rgb(0,0,0)","size":10.0},{"label":"World\u0027s End Place, West Chelsea","x":-9156.1435546875,"y":-6774.0,"id":"649","attributes":{"lon":"-0.180274","lat":"51.481805"},"color":"rgb(0,0,0)","size":10.0},{"label":"Leonard Circus , Shoreditch","x":7570.2197265625,"y":5252.0,"id":"32","attributes":{"lon":"-0.084439","lat":"51.524696"},"color":"rgb(0,0,0)","size":10.0},{"label":"Store Street, Bloomsbury","x":-755.1754150390625,"y":3814.0,"id":"364","attributes":{"lon":"-0.13214","lat":"51.519572"},"color":"rgb(0,0,0)","size":10.0},{"label":"Westfield Library Corner, Shepherd\u0027s Bush","x":-16840.65234375,"y":34.0,"id":"591","attributes":{"lon":"-0.224303","lat":"51.506093"},"color":"rgb(0,0,0)","size":10.0},{"label":"Hoxton Street, Hoxton","x":8327.517578125,"y":6625.0,"id":"588","attributes":{"lon":"-0.0801","lat":"51.52959"},"color":"rgb(0,0,0)","size":10.0},{"label":"Wandsworth Rd, Isley Court, Wandsworth Road","x":-2443.2578125,"y":-10290.0,"id":"612","attributes":{"lon":"-0.141812","lat":"51.469259"},"color":"rgb(0,0,0)","size":10.0},{"label":"Gloucester Avenue, Camden Town","x":-3375.61279296875,"y":8802.0,"id":"535","attributes":{"lon":"-0.147154","lat":"51.537349"},"color":"rgb(0,0,0)","size":10.0},{"label":"Clapham Common North Side, Clapham Common","x":-5499.3291015625,"y":-12508.0,"id":"768","attributes":{"lon":"-0.159322","lat":"51.461343"},"color":"rgb(0,0,0)","size":10.0},{"label":"Usk Road, Clapham Junction","x":-9479.37890625,"y":-11907.0,"id":"675","attributes":{"lon":"-0.182126","lat":"51.463489"},"color":"rgb(0,0,0)","size":10.0},{"label":"Margery Street, Clerkenwell","x":2684.51953125,"y":5786.0,"id":"204","attributes":{"lon":"-0.112432","lat":"51.526599"},"color":"rgb(0,0,0)","size":10.0},{"label":"Riverlight South, Nine Elms","x":-1814.9393310546875,"y":-6906.0,"id":"817","attributes":{"lon":"-0.138212","lat":"51.481335"},"color":"rgb(0,0,0)","size":10.0},{"label":"East Ferry Road, Cubitt Town","x":19792.76171875,"y":-3224.0,"id":"455","attributes":{"lon":"-0.014409","lat":"51.49447"},"color":"rgb(0,0,0)","size":10.0},{"label":"Clarkson Street, Bethnal Green","x":11994.2802734375,"y":6373.0,"id":"507","attributes":{"lon":"-0.059091","lat":"51.528692"},"color":"rgb(0,0,0)","size":10.0},{"label":"Greenland Road, Camden Town","x":-2428.59716796875,"y":9293.0,"id":"572","attributes":{"lon":"-0.141728","lat":"51.539099"},"color":"rgb(0,0,0)","size":10.0},{"label":"Irene Road, Parsons Green","x":-12077.126953125,"y":-9028.0,"id":"619","attributes":{"lon":"-0.19701","lat":"51.473763"},"color":"rgb(0,0,0)","size":10.0},{"label":"Theobald\u0027s Road , Holborn","x":1941.7073974609375,"y":4102.0,"id":"68","attributes":{"lon":"-0.116688","lat":"51.520596"},"color":"rgb(0,0,0)","size":10.0},{"label":"Rotherhithe Roundabout, Rotherhithe","x":12560.638671875,"y":-1907.0,"id":"411","attributes":{"lon":"-0.055846","lat":"51.499169"},"color":"rgb(0,0,0)","size":10.0},{"label":"Alma Road, Wandsworth","x":-9947.126953125,"y":-13447.0,"id":"724","attributes":{"lon":"-0.184806","lat":"51.457991"},"color":"rgb(0,0,0)","size":10.0},{"label":"Carey Street, Holborn","x":2628.494384765625,"y":2535.0,"id":"232","attributes":{"lon":"-0.112753","lat":"51.51501"},"color":"rgb(0,0,0)","size":10.0},{"label":"Goldsmith\u0027s Row, Haggerston","x":10782.3232421875,"y":7263.0,"id":"534","attributes":{"lon":"-0.066035","lat":"51.531864"},"color":"rgb(0,0,0)","size":10.0},{"label":"Webber Street , Southwark","x":4489.36474609375,"y":-1480.0,"id":"80","attributes":{"lon":"-0.102091","lat":"51.500693"},"color":"rgb(0,0,0)","size":10.0},{"label":"Kingsway, Covent Garden","x":1629.29345703125,"y":2366.0,"id":"283","attributes":{"lon":"-0.118478","lat":"51.514409"},"color":"rgb(0,0,0)","size":10.0},{"label":"Phene Street, Chelsea","x":-6999.7890625,"y":-5883.0,"id":"662","attributes":{"lon":"-0.167919","lat":"51.484984"},"color":"rgb(0,0,0)","size":10.0},{"label":"Speakers\u0027 Corner 2, Hyde Park","x":-5709.99072265625,"y":1756.0,"id":"406","attributes":{"lon":"-0.160529","lat":"51.512232"},"color":"rgb(0,0,0)","size":10.0},{"label":"Bethnal Green Garden, Bethnal Green","x":12653.83984375,"y":5528.0,"id":"444","attributes":{"lon":"-0.055312","lat":"51.52568"},"color":"rgb(0,0,0)","size":10.0},{"label":"Birkenhead Street, King\u0027s Cross","x":962.403076171875,"y":6795.0,"id":"798","attributes":{"lon":"-0.122299","lat":"51.530199"},"color":"rgb(0,0,0)","size":10.0},{"label":"Collingham Gardens, Earl\u0027s Court","x":-10286.9423828125,"y":-4025.0,"id":"171","attributes":{"lon":"-0.186753","lat":"51.491615"},"color":"rgb(0,0,0)","size":10.0},{"label":"Rectory Square, Stepney","x":14737.9375,"y":3477.0,"id":"561","attributes":{"lon":"-0.043371","lat":"51.518369"},"color":"rgb(0,0,0)","size":10.0},{"label":"Grenfell Road, Avondale","x":-15175.435546875,"y":1943.0,"id":"754","attributes":{"lon":"-0.214762","lat":"51.5129"},"color":"rgb(0,0,0)","size":10.0},{"label":"Harrington Square 2, Camden Town","x":-1997.500732421875,"y":7694.0,"id":"425","attributes":{"lon":"-0.139258","lat":"51.533403"},"color":"rgb(0,0,0)","size":10.0},{"label":"Wellington Street , Strand","x":1425.962646484375,"y":1622.0,"id":"338","attributes":{"lon":"-0.119643","lat":"51.511756"},"color":"rgb(0,0,0)","size":10.0},{"label":"Cleveland Way, Stepney","x":13337.66015625,"y":4185.0,"id":"503","attributes":{"lon":"-0.051394","lat":"51.520893"},"color":"rgb(0,0,0)","size":10.0},{"label":"Clifton Road, Maida Vale","x":-9037.1123046875,"y":5498.0,"id":"255","attributes":{"lon":"-0.179592","lat":"51.525575"},"color":"rgb(0,0,0)","size":10.0},{"label":"Portugal Street, Holborn","x":2036.30419921875,"y":2516.0,"id":"147","attributes":{"lon":"-0.116146","lat":"51.514943"},"color":"rgb(0,0,0)","size":10.0},{"label":"New North Road 1, Hoxton","x":7367.0634765625,"y":7006.0,"id":"327","attributes":{"lon":"-0.085603","lat":"51.53095"},"color":"rgb(0,0,0)","size":10.0},{"label":"Russell Gardens, Olympia","x":-14573.9951171875,"y":-1649.0,"id":"515","attributes":{"lon":"-0.211316","lat":"51.500088"},"color":"rgb(0,0,0)","size":10.0},{"label":"Calshot Street , King\u0027s Cross","x":1875.2103271484375,"y":7121.0,"id":"70","attributes":{"lon":"-0.117069","lat":"51.53136"},"color":"rgb(0,0,0)","size":10.0},{"label":"Southwark Station 1, Southwark","x":3927.19384765625,"y":-541.0,"id":"420","attributes":{"lon":"-0.105312","lat":"51.504043"},"color":"rgb(0,0,0)","size":10.0},{"label":"Sopwith Way, Battersea Park","x":-3703.9091796875,"y":-6966.0,"id":"800","attributes":{"lon":"-0.149035","lat":"51.481121"},"color":"rgb(0,0,0)","size":10.0},{"label":"West Cromwell Road, Earl\u0027s Court","x":-12299.8310546875,"y":-3434.0,"id":"142","attributes":{"lon":"-0.198286","lat":"51.493724"},"color":"rgb(0,0,0)","size":10.0},{"label":"Queensbridge Road, Haggerston","x":10104.2626953125,"y":7820.0,"id":"536","attributes":{"lon":"-0.06992","lat":"51.53385"},"color":"rgb(0,0,0)","size":10.0},{"label":"Portland Place, Marylebone","x":-3036.4951171875,"y":4135.0,"id":"184","attributes":{"lon":"-0.145211","lat":"51.520715"},"color":"rgb(0,0,0)","size":10.0},{"label":"Farringdon Lane, Clerkenwell","x":3398.708251953125,"y":4922.0,"id":"72","attributes":{"lon":"-0.10834","lat":"51.52352"},"color":"rgb(0,0,0)","size":10.0},{"label":"Braham Street, Aldgate","x":9472.9775390625,"y":2317.0,"id":"115","attributes":{"lon":"-0.073537","lat":"51.514233"},"color":"rgb(0,0,0)","size":10.0},{"label":"Imperial College, Knightsbridge","x":-9056.310546875,"y":-1835.0,"id":"392","attributes":{"lon":"-0.179702","lat":"51.499428"},"color":"rgb(0,0,0)","size":10.0},{"label":"Charlotte Street, Fitzrovia","x":-1389.95166015625,"y":3803.0,"id":"381","attributes":{"lon":"-0.135777","lat":"51.51953"},"color":"rgb(0,0,0)","size":10.0},{"label":"Earnshaw Street , Covent Garden","x":-134.71084594726562,"y":2846.0,"id":"244","attributes":{"lon":"-0.128585","lat":"51.516118"},"color":"rgb(0,0,0)","size":10.0},{"label":"Northington Street , Holborn","x":2397.063720703125,"y":4569.0,"id":"22","attributes":{"lon":"-0.114079","lat":"51.522264"},"color":"rgb(0,0,0)","size":10.0},{"label":"Pritchard\u0027s Road, Bethnal Green","x":11587.79296875,"y":7326.0,"id":"512","attributes":{"lon":"-0.06142","lat":"51.532091"},"color":"rgb(0,0,0)","size":10.0},{"label":"Southwark Street, Bankside","x":5143.86279296875,"y":-158.0,"id":"803","attributes":{"lon":"-0.098341","lat":"51.505409"},"color":"rgb(0,0,0)","size":10.0},{"label":"Prince Albert Road, The Regent\u0027s Park","x":-5766.7138671875,"y":8393.0,"id":"329","attributes":{"lon":"-0.160854","lat":"51.535892"},"color":"rgb(0,0,0)","size":10.0},{"label":"Neville Gill Close, Wandsworth","x":-11760.6982421875,"y":-14354.0,"id":"684","attributes":{"lon":"-0.195197","lat":"51.454752"},"color":"rgb(0,0,0)","size":10.0},{"label":"Old Ford Road, Bethnal Green","x":13927.0576171875,"y":7056.0,"id":"485","attributes":{"lon":"-0.048017","lat":"51.531127"},"color":"rgb(0,0,0)","size":10.0},{"label":"Belgrave Road, Victoria","x":-2848.17431640625,"y":-3579.0,"id":"268","attributes":{"lon":"-0.144132","lat":"51.493204"},"color":"rgb(0,0,0)","size":10.0},{"label":"Gloucester Road (North), Kensington","x":-9777.48046875,"y":-2256.0,"id":"97","attributes":{"lon":"-0.183834","lat":"51.497924"},"color":"rgb(0,0,0)","size":10.0},{"label":"Newton Street, Covent Garden","x":1205.00390625,"y":2848.0,"id":"751","attributes":{"lon":"-0.120909","lat":"51.516128"},"color":"rgb(0,0,0)","size":10.0},{"label":"Tavistock Street, Covent Garden","x":1238.3397216796875,"y":1682.0,"id":"335","attributes":{"lon":"-0.120718","lat":"51.511968"},"color":"rgb(0,0,0)","size":10.0},{"label":"Gloucester Road (Central), South Kensington","x":-9682.3603515625,"y":-2666.0,"id":"113","attributes":{"lon":"-0.183289","lat":"51.496462"},"color":"rgb(0,0,0)","size":10.0},{"label":"Colombo Street, Southwark","x":3877.626708984375,"y":-176.0,"id":"240","attributes":{"lon":"-0.105596","lat":"51.505342"},"color":"rgb(0,0,0)","size":10.0},{"label":"Tower Gardens , Tower","x":9137.5244140625,"y":991.0,"id":"130","attributes":{"lon":"-0.075459","lat":"51.509506"},"color":"rgb(0,0,0)","size":10.0},{"label":"Belgrove Street , King\u0027s Cross","x":732.543212890625,"y":6724.0,"id":"14","attributes":{"lon":"-0.123616","lat":"51.529943"},"color":"rgb(0,0,0)","size":10.0},{"label":"Upper Bank Street, Canary Wharf","x":19222.5625,"y":-810.0,"id":"570","attributes":{"lon":"-0.017676","lat":"51.503083"},"color":"rgb(0,0,0)","size":10.0},{"label":"Malmesbury Road, Bow","x":17487.705078125,"y":6586.0,"id":"472","attributes":{"lon":"-0.027616","lat":"51.529452"},"color":"rgb(0,0,0)","size":10.0},{"label":"Tooley Street, Bermondsey","x":8411.29296875,"y":-695.0,"id":"278","attributes":{"lon":"-0.07962","lat":"51.503493"},"color":"rgb(0,0,0)","size":10.0},{"label":"Merchant Street, Bow","x":17493.8125,"y":5780.0,"id":"497","attributes":{"lon":"-0.027581","lat":"51.526578"},"color":"rgb(0,0,0)","size":10.0},{"label":"Finsbury Library , Finsbury","x":4104.17041015625,"y":5819.0,"id":"51","attributes":{"lon":"-0.104298","lat":"51.526717"},"color":"rgb(0,0,0)","size":10.0},{"label":"Victoria \u0026 Albert Museum, South Kensington","x":-7888.16162109375,"y":-2824.0,"id":"781","attributes":{"lon":"-0.173009","lat":"51.495898"},"color":"rgb(0,0,0)","size":10.0},{"label":"Moorfields, Moorgate","x":6898.96630859375,"y":3673.0,"id":"215","attributes":{"lon":"-0.088285","lat":"51.519069"},"color":"rgb(0,0,0)","size":10.0},{"label":"St. Peter\u0027s Terrace, Fulham","x":-14079.8916015625,"y":-7578.0,"id":"729","attributes":{"lon":"-0.208485","lat":"51.478939"},"color":"rgb(0,0,0)","size":10.0},{"label":"Granby Street, Shoreditch","x":10170.0615234375,"y":5518.0,"id":"486","attributes":{"lon":"-0.069543","lat":"51.525645"},"color":"rgb(0,0,0)","size":10.0},{"label":"Sandilands Road, Walham Green","x":-11168.333984375,"y":-9071.0,"id":"769","attributes":{"lon":"-0.191803","lat":"51.473611"},"color":"rgb(0,0,0)","size":10.0},{"label":"Aberfeldy Street, Poplar","x":21319.923828125,"y":2125.0,"id":"554","attributes":{"lon":"-0.005659","lat":"51.513548"},"color":"rgb(0,0,0)","size":10.0},{"label":"Monier Road, Hackney Wick","x":18532.458984375,"y":9633.0,"id":"783","attributes":{"lon":"-0.02163","lat":"51.540311"},"color":"rgb(0,0,0)","size":10.0},{"label":"Halford Road, West Kensington","x":-12181.671875,"y":-6184.0,"id":"782","attributes":{"lon":"-0.197609","lat":"51.483911"},"color":"rgb(0,0,0)","size":10.0},{"label":"Selby Street, Whitechapel","x":11244.6611328125,"y":4469.0,"id":"565","attributes":{"lon":"-0.063386","lat":"51.521905"},"color":"rgb(0,0,0)","size":10.0},{"label":"Lollard Street, Vauxhall","x":2247.838134765625,"y":-3670.0,"id":"117","attributes":{"lon":"-0.114934","lat":"51.49288"},"color":"rgb(0,0,0)","size":10.0},{"label":"Silverthorne Road, Battersea","x":-3533.56494140625,"y":-9280.0,"id":"640","attributes":{"lon":"-0.148059","lat":"51.472865"},"color":"rgb(0,0,0)","size":10.0},{"label":"Crisp Road, Hammersmith","x":-17242.6015625,"y":-5008.0,"id":"682","attributes":{"lon":"-0.226606","lat":"51.488108"},"color":"rgb(0,0,0)","size":10.0},{"label":"Clarence Walk, Stockwell","x":142.97103881835938,"y":-9877.0,"id":"630","attributes":{"lon":"-0.126994","lat":"51.470732"},"color":"rgb(0,0,0)","size":10.0},{"label":"Snow Hill, Farringdon","x":4225.29638671875,"y":3187.0,"id":"393","attributes":{"lon":"-0.103604","lat":"51.517334"},"color":"rgb(0,0,0)","size":10.0},{"label":"Maplin Street, Mile End","x":16675.951171875,"y":5478.0,"id":"492","attributes":{"lon":"-0.032267","lat":"51.525501"},"color":"rgb(0,0,0)","size":10.0},{"label":"Plough Terrace, Clapham Junction","x":-8306.6923828125,"y":-12238.0,"id":"734","attributes":{"lon":"-0.175407","lat":"51.462305"},"color":"rgb(0,0,0)","size":10.0},{"label":"Castlehaven Road, Camden Town","x":-3068.26025390625,"y":10145.0,"id":"457","attributes":{"lon":"-0.145393","lat":"51.542138"},"color":"rgb(0,0,0)","size":10.0},{"label":"Nutford Place, Marylebone","x":-6384.3857421875,"y":2958.0,"id":"188","attributes":{"lon":"-0.164393","lat":"51.516517"},"color":"rgb(0,0,0)","size":10.0},{"label":"Shoreditch Park, Hoxton","x":7231.6259765625,"y":7874.0,"id":"253","attributes":{"lon":"-0.086379","lat":"51.534042"},"color":"rgb(0,0,0)","size":10.0},{"label":"Falcon Road, Clapham Junction","x":-7331.75048828125,"y":-11026.0,"id":"638","attributes":{"lon":"-0.169821","lat":"51.466633"},"color":"rgb(0,0,0)","size":10.0},{"label":"Knaresborough Place, Earl\u0027s Court","x":-10958.89453125,"y":-3460.0,"id":"296","attributes":{"lon":"-0.190603","lat":"51.493631"},"color":"rgb(0,0,0)","size":10.0},{"label":"Soho Square , Soho","x":-787.9876098632812,"y":2709.0,"id":"109","attributes":{"lon":"-0.132328","lat":"51.515631"},"color":"rgb(0,0,0)","size":10.0},{"label":"Gauden Road, Clapham","x":-540.15087890625,"y":-11485.0,"id":"808","attributes":{"lon":"-0.130908","lat":"51.464995"},"color":"rgb(0,0,0)","size":10.0},{"label":"Royal London Hospital, Whitechapel","x":11641.8974609375,"y":3563.0,"id":"282","attributes":{"lon":"-0.06111","lat":"51.518675"},"color":"rgb(0,0,0)","size":10.0},{"label":"Philpot Street, Whitechapel","x":12072.8193359375,"y":2604.0,"id":"443","attributes":{"lon":"-0.058641","lat":"51.515256"},"color":"rgb(0,0,0)","size":10.0},{"label":"Mudchute DLR, Cubitt Town","x":19762.56640625,"y":-4297.0,"id":"586","attributes":{"lon":"-0.014582","lat":"51.490645"},"color":"rgb(0,0,0)","size":10.0},{"label":"Old Street Station, St. Luke\u0027s","x":6659.15771484375,"y":5472.0,"id":"73","attributes":{"lon":"-0.089659","lat":"51.52548"},"color":"rgb(0,0,0)","size":10.0},{"label":"Woodstock Grove, Shepherd\u0027s Bush","x":-15635.853515625,"y":-542.0,"id":"613","attributes":{"lon":"-0.2174","lat":"51.504038"},"color":"rgb(0,0,0)","size":10.0},{"label":"Battersea Park Road, Nine Elms","x":-2435.927490234375,"y":-7420.0,"id":"631","attributes":{"lon":"-0.14177","lat":"51.479501"},"color":"rgb(0,0,0)","size":10.0},{"label":"BBC White City, White City","x":-17099.66015625,"y":2467.0,"id":"601","attributes":{"lon":"-0.225787","lat":"51.514767"},"color":"rgb(0,0,0)","size":10.0},{"label":"St. George Street, Mayfair","x":-2612.729248046875,"y":1680.0,"id":"349","attributes":{"lon":"-0.142783","lat":"51.51196"},"color":"rgb(0,0,0)","size":10.0},{"label":"Marloes Road, Kensington","x":-11273.228515625,"y":-2661.0,"id":"384","attributes":{"lon":"-0.192404","lat":"51.496481"},"color":"rgb(0,0,0)","size":10.0},{"label":"Devonshire Square, Liverpool Street","x":8400.123046875,"y":2944.0,"id":"87","attributes":{"lon":"-0.079684","lat":"51.516468"},"color":"rgb(0,0,0)","size":10.0},{"label":"Finsbury Square , Moorgate","x":7361.65283203125,"y":4204.0,"id":"140","attributes":{"lon":"-0.085634","lat":"51.520962"},"color":"rgb(0,0,0)","size":10.0},{"label":"Central House, Whitechapel","x":10067.0869140625,"y":2597.0,"id":"33","attributes":{"lon":"-0.070133","lat":"51.515231"},"color":"rgb(0,0,0)","size":10.0},{"label":"Gower Place , Euston","x":-1287.1517333984375,"y":5401.0,"id":"65","attributes":{"lon":"-0.135188","lat":"51.525227"},"color":"rgb(0,0,0)","size":10.0},{"label":"Saltoun Road, Brixton","x":2170.869140625,"y":-12819.0,"id":"833","attributes":{"lon":"-0.115375","lat":"51.460232"},"color":"rgb(0,0,0)","size":10.0},{"label":"Longford Street, The Regent\u0027s Park","x":-2839.6220703125,"y":5504.0,"id":"76","attributes":{"lon":"-0.144083","lat":"51.525595"},"color":"rgb(0,0,0)","size":10.0},{"label":"St. Bride Street, Holborn","x":3921.60888671875,"y":2549.0,"id":"703","attributes":{"lon":"-0.105344","lat":"51.515059"},"color":"rgb(0,0,0)","size":10.0},{"label":"Albert Bridge Road, Battersea Park","x":-6201.82421875,"y":-8852.0,"id":"710","attributes":{"lon":"-0.163347","lat":"51.474392"},"color":"rgb(0,0,0)","size":10.0},{"label":"Tallis Street, Temple","x":3571.67041015625,"y":1660.0,"id":"773","attributes":{"lon":"-0.107349","lat":"51.511891"},"color":"rgb(0,0,0)","size":10.0},{"label":"Driffield Road, Old Ford","x":15786.0078125,"y":7900.0,"id":"521","attributes":{"lon":"-0.037366","lat":"51.534137"},"color":"rgb(0,0,0)","size":10.0},{"label":"Greyhound Road, Hammersmith","x":-15117.1416015625,"y":-5581.0,"id":"635","attributes":{"lon":"-0.214428","lat":"51.486062"},"color":"rgb(0,0,0)","size":10.0},{"label":"Lexham Gardens, Kensington","x":-11191.0234375,"y":-2833.0,"id":"155","attributes":{"lon":"-0.191933","lat":"51.495866"},"color":"rgb(0,0,0)","size":10.0},{"label":"Concert Hall Approach 2, South Bank","x":2143.29296875,"y":-288.0,"id":"336","attributes":{"lon":"-0.115533","lat":"51.504942"},"color":"rgb(0,0,0)","size":10.0},{"label":"Stanley Grove, Battersea","x":-4244.08837890625,"y":-9949.0,"id":"690","attributes":{"lon":"-0.15213","lat":"51.470475"},"color":"rgb(0,0,0)","size":10.0},{"label":"Concert Hall Approach 1, South Bank","x":2087.79150390625,"y":-260.0,"id":"334","attributes":{"lon":"-0.115851","lat":"51.505044"},"color":"rgb(0,0,0)","size":10.0},{"label":"Emperor\u0027s Gate, South Kensington","x":-10032.6484375,"y":-2974.0,"id":"128","attributes":{"lon":"-0.185296","lat":"51.495362"},"color":"rgb(0,0,0)","size":10.0},{"label":"Spanish Road, Clapham Junction","x":-9262.6083984375,"y":-13101.0,"id":"689","attributes":{"lon":"-0.180884","lat":"51.459225"},"color":"rgb(0,0,0)","size":10.0},{"label":"Westferry Circus, Canary Wharf","x":17460.4765625,"y":-75.0,"id":"811","attributes":{"lon":"-0.027772","lat":"51.505703"},"color":"rgb(0,0,0)","size":10.0},{"label":"Great Tower Street, Monument","x":7823.29248046875,"y":1266.0,"id":"199","attributes":{"lon":"-0.082989","lat":"51.510484"},"color":"rgb(0,0,0)","size":10.0},{"label":"London Fields, Hackney Central","x":12040.53125,"y":9879.0,"id":"614","attributes":{"lon":"-0.058826","lat":"51.54119"},"color":"rgb(0,0,0)","size":10.0},{"label":"Regent\u0027s Row , Haggerston","x":11391.2685546875,"y":8333.0,"id":"553","attributes":{"lon":"-0.062546","lat":"51.535678"},"color":"rgb(0,0,0)","size":10.0},{"label":"Aylward Street, Stepney","x":13743.7978515625,"y":2709.0,"id":"715","attributes":{"lon":"-0.049067","lat":"51.51563"},"color":"rgb(0,0,0)","size":10.0},{"label":"Stamford Street, South Bank","x":2828.683837890625,"y":-113.0,"id":"197","attributes":{"lon":"-0.111606","lat":"51.505569"},"color":"rgb(0,0,0)","size":10.0},{"label":"Tachbrook Street, Victoria","x":-1841.46826171875,"y":-3886.0,"id":"148","attributes":{"lon":"-0.138364","lat":"51.492111"},"color":"rgb(0,0,0)","size":10.0},{"label":"Curzon Street, Mayfair","x":-3157.446533203125,"y":308.0,"id":"49","attributes":{"lon":"-0.145904","lat":"51.507069"},"color":"rgb(0,0,0)","size":10.0},{"label":"Parkway, Camden Town","x":-2941.025634765625,"y":9004.0,"id":"456","attributes":{"lon":"-0.144664","lat":"51.538071"},"color":"rgb(0,0,0)","size":10.0},{"label":"Guilford Street , Bloomsbury","x":1328.398681640625,"y":4873.0,"id":"57","attributes":{"lon":"-0.120202","lat":"51.523346"},"color":"rgb(0,0,0)","size":10.0},{"label":"Grant Road East, Clapham Junction","x":-7891.65234375,"y":-11513.0,"id":"735","attributes":{"lon":"-0.173029","lat":"51.464894"},"color":"rgb(0,0,0)","size":10.0},{"label":"North Audley Street, Mayfair","x":-4508.505859375,"y":1946.0,"id":"180","attributes":{"lon":"-0.153645","lat":"51.512911"},"color":"rgb(0,0,0)","size":10.0},{"label":"Fournier Street, Whitechapel","x":9316.9443359375,"y":3755.0,"id":"508","attributes":{"lon":"-0.074431","lat":"51.519362"},"color":"rgb(0,0,0)","size":10.0},{"label":"Spindrift Avenue, Millwall","x":19041.046875,"y":-4172.0,"id":"477","attributes":{"lon":"-0.018716","lat":"51.49109"},"color":"rgb(0,0,0)","size":10.0},{"label":"Park Road (Baker Street), The Regent\u0027s Park","x":-5436.671875,"y":5201.0,"id":"114","attributes":{"lon":"-0.158963","lat":"51.524517"},"color":"rgb(0,0,0)","size":10.0},{"label":"Belvedere Road 2, South Bank","x":2263.895263671875,"y":67.0,"id":"819","attributes":{"lon":"-0.114842","lat":"51.50621"},"color":"rgb(0,0,0)","size":10.0},{"label":"Red Lion Street, Holborn","x":1965.79296875,"y":3441.0,"id":"436","attributes":{"lon":"-0.11655","lat":"51.51824"},"color":"rgb(0,0,0)","size":10.0},{"label":"Exhibition Road, Knightsbridge","x":-8157.81494140625,"y":-1697.0,"id":"428","attributes":{"lon":"-0.174554","lat":"51.499917"},"color":"rgb(0,0,0)","size":10.0},{"label":"Antill Road, Mile End","x":15767.681640625,"y":6241.0,"id":"518","attributes":{"lon":"-0.037471","lat":"51.528224"},"color":"rgb(0,0,0)","size":10.0},{"label":"Whitehall Place, Strand","x":808.8140869140625,"y":160.0,"id":"229","attributes":{"lon":"-0.123179","lat":"51.506543"},"color":"rgb(0,0,0)","size":10.0},{"label":"Whiston Road, Haggerston","x":8983.5869140625,"y":7992.0,"id":"466","attributes":{"lon":"-0.076341","lat":"51.534464"},"color":"rgb(0,0,0)","size":10.0},{"label":"Princes Square, Bayswater","x":-11089.4453125,"y":2108.0,"id":"261","attributes":{"lon":"-0.191351","lat":"51.513489"},"color":"rgb(0,0,0)","size":10.0},{"label":"Gascoyne Road, Victoria Park","x":15578.138671875,"y":9971.0,"id":"474","attributes":{"lon":"-0.038557","lat":"51.541515"},"color":"rgb(0,0,0)","size":10.0},{"label":"Gloucester Road Station, South Kensington","x":-9574.32421875,"y":-3304.0,"id":"405","attributes":{"lon":"-0.18267","lat":"51.494185"},"color":"rgb(0,0,0)","size":10.0},{"label":"Dorset Square, Marylebone","x":-5811.91796875,"y":4663.0,"id":"201","attributes":{"lon":"-0.161113","lat":"51.522596"},"color":"rgb(0,0,0)","size":10.0},{"label":"South Audley Street, Mayfair","x":-4098.5283203125,"y":914.0,"id":"289","attributes":{"lon":"-0.151296","lat":"51.50923"},"color":"rgb(0,0,0)","size":10.0},{"label":"Islington Green, Angel","x":4373.12548828125,"y":8531.0,"id":"695","attributes":{"lon":"-0.102757","lat":"51.536384"},"color":"rgb(0,0,0)","size":10.0},{"label":"De Vere Gardens, Kensington","x":-9977.49609375,"y":-1187.0,"id":"36","attributes":{"lon":"-0.18498","lat":"51.501737"},"color":"rgb(0,0,0)","size":10.0},{"label":"Pott Street, Bethnal Green","x":12183.822265625,"y":5941.0,"id":"479","attributes":{"lon":"-0.058005","lat":"51.527152"},"color":"rgb(0,0,0)","size":10.0},{"label":"Seymour Place, Marylebone","x":-6257.6748046875,"y":4027.0,"id":"605","attributes":{"lon":"-0.163667","lat":"51.520331"},"color":"rgb(0,0,0)","size":10.0},{"label":"Wormwood Street, Liverpool Street","x":7922.25244140625,"y":2856.0,"id":"217","attributes":{"lon":"-0.082422","lat":"51.516154"},"color":"rgb(0,0,0)","size":10.0},{"label":"Harford Street, Mile End","x":15454.744140625,"y":4373.0,"id":"550","attributes":{"lon":"-0.039264","lat":"51.521564"},"color":"rgb(0,0,0)","size":10.0},{"label":"Shepherd\u0027s Bush Road North, Shepherd\u0027s Bush","x":-16489.841796875,"y":-1227.0,"id":"667","attributes":{"lon":"-0.222293","lat":"51.501594"},"color":"rgb(0,0,0)","size":10.0},{"label":"Lambeth North Station, Waterloo","x":2754.50732421875,"y":-1915.0,"id":"284","attributes":{"lon":"-0.112031","lat":"51.49914"},"color":"rgb(0,0,0)","size":10.0},{"label":"Holland Park, Kensington","x":-12728.4833984375,"y":-1024.0,"id":"398","attributes":{"lon":"-0.200742","lat":"51.502319"},"color":"rgb(0,0,0)","size":10.0},{"label":"Battersea Power Station, Battersea Park","x":-3473.35107421875,"y":-6297.0,"id":"821","attributes":{"lon":"-0.147714","lat":"51.483507"},"color":"rgb(0,0,0)","size":10.0},{"label":"Lots Road, West Chelsea","x":-8940.4208984375,"y":-7400.0,"id":"746","attributes":{"lon":"-0.179038","lat":"51.479573"},"color":"rgb(0,0,0)","size":10.0},{"label":"Abbotsbury Road, Holland Park","x":-13644.6064453125,"y":-1284.0,"id":"559","attributes":{"lon":"-0.205991","lat":"51.501391"},"color":"rgb(0,0,0)","size":10.0},{"label":"Salmon Lane, Limehouse","x":16403.505859375,"y":2284.0,"id":"542","attributes":{"lon":"-0.033828","lat":"51.514115"},"color":"rgb(0,0,0)","size":10.0},{"label":"Vicarage Crescent, Battersea","x":-8456.7900390625,"y":-9277.0,"id":"701","attributes":{"lon":"-0.176267","lat":"51.472876"},"color":"rgb(0,0,0)","size":10.0},{"label":"Parson\u0027s Green , Parson\u0027s Green","x":-12561.1064453125,"y":-9293.0,"id":"596","attributes":{"lon":"-0.199783","lat":"51.472817"},"color":"rgb(0,0,0)","size":10.0},{"label":"Queen Street 2, Bank","x":6067.14208984375,"y":1479.0,"id":"579","attributes":{"lon":"-0.093051","lat":"51.511246"},"color":"rgb(0,0,0)","size":10.0},{"label":"St. John\u0027s Wood Church, The Regent\u0027s Park","x":-6929.27783203125,"y":6888.0,"id":"247","attributes":{"lon":"-0.167515","lat":"51.530529"},"color":"rgb(0,0,0)","size":10.0},{"label":"Exhibition Road Museums 1, South Kensington","x":-8018.7119140625,"y":-2664.0,"id":"432","attributes":{"lon":"-0.173757","lat":"51.496471"},"color":"rgb(0,0,0)","size":10.0},{"label":"Carnegie Street, King\u0027s Cross","x":2028.4503173828125,"y":8274.0,"id":"674","attributes":{"lon":"-0.116191","lat":"51.535467"},"color":"rgb(0,0,0)","size":10.0},{"label":"Lisson Grove, St. John\u0027s Wood","x":-7745.21923828125,"y":5743.0,"id":"60","attributes":{"lon":"-0.17219","lat":"51.526448"},"color":"rgb(0,0,0)","size":10.0},{"label":"New Cavendish Street, Marylebone","x":-3520.300537109375,"y":3701.0,"id":"581","attributes":{"lon":"-0.147983","lat":"51.519167"},"color":"rgb(0,0,0)","size":10.0},{"label":"Wapping Lane, Wapping","x":12264.2822265625,"y":-343.0,"id":"458","attributes":{"lon":"-0.057544","lat":"51.504749"},"color":"rgb(0,0,0)","size":10.0},{"label":"George Street, Marylebone","x":-4588.9658203125,"y":3290.0,"id":"400","attributes":{"lon":"-0.154106","lat":"51.517703"},"color":"rgb(0,0,0)","size":10.0},{"label":"Old Montague Street, Whitechapel","x":10450.361328125,"y":3354.0,"id":"537","attributes":{"lon":"-0.067937","lat":"51.51793"},"color":"rgb(0,0,0)","size":10.0},{"label":"Park Lane , Hyde Park","x":-5142.060546875,"y":1135.0,"id":"111","attributes":{"lon":"-0.157275","lat":"51.510017"},"color":"rgb(0,0,0)","size":10.0},{"label":"Baldwin Street, St. Luke\u0027s","x":6854.111328125,"y":5905.0,"id":"319","attributes":{"lon":"-0.088542","lat":"51.527025"},"color":"rgb(0,0,0)","size":10.0},{"label":"Rodney Street, Angel","x":2352.732421875,"y":7252.0,"id":"59","attributes":{"lon":"-0.114333","lat":"51.531825"},"color":"rgb(0,0,0)","size":10.0},{"label":"Blenheim Crescent, Ladbroke Grove","x":-14093.8544921875,"y":2562.0,"id":"742","attributes":{"lon":"-0.208565","lat":"51.515108"},"color":"rgb(0,0,0)","size":10.0},{"label":"Pancras Road, King\u0027s Cross","x":-274.51171875,"y":7896.0,"id":"34","attributes":{"lon":"-0.129386","lat":"51.534123"},"color":"rgb(0,0,0)","size":10.0},{"label":"Coram Street, Bloomsbury","x":245.0727996826172,"y":5056.0,"id":"796","attributes":{"lon":"-0.126409","lat":"51.524"},"color":"rgb(0,0,0)","size":10.0},{"label":"Drummond Street , Euston","x":-1437.9481201171875,"y":5989.0,"id":"20","attributes":{"lon":"-0.136052","lat":"51.527326"},"color":"rgb(0,0,0)","size":10.0},{"label":"Wellington Arch, Hyde Park","x":-3797.109619140625,"y":-906.0,"id":"213","attributes":{"lon":"-0.149569","lat":"51.50274"},"color":"rgb(0,0,0)","size":10.0},{"label":"Teversham Lane, Stockwell","x":795.0260009765625,"y":-8359.0,"id":"669","attributes":{"lon":"-0.123258","lat":"51.476149"},"color":"rgb(0,0,0)","size":10.0},{"label":"Golden Square, Soho","x":-1610.9102783203125,"y":1662.0,"id":"129","attributes":{"lon":"-0.137043","lat":"51.511897"},"color":"rgb(0,0,0)","size":10.0},{"label":"Bouverie Street, Temple","x":3470.790283203125,"y":2201.0,"id":"27","attributes":{"lon":"-0.107927","lat":"51.513821"},"color":"rgb(0,0,0)","size":10.0},{"label":"Bethnal Green Road, Shoreditch","x":9260.5703125,"y":4958.0,"id":"132","attributes":{"lon":"-0.074754","lat":"51.523648"},"color":"rgb(0,0,0)","size":10.0},{"label":"Tower Wharf, Bermondsey","x":9269.296875,"y":-1437.0,"id":"841","attributes":{"lon":"-0.074704","lat":"51.500845"},"color":"rgb(0,0,0)","size":10.0},{"label":"Queen Victoria Street, St. Paul\u0027s","x":5300.9423828125,"y":1680.0,"id":"136","attributes":{"lon":"-0.097441","lat":"51.511961"},"color":"rgb(0,0,0)","size":10.0},{"label":"Cleveland Gardens, Bayswater","x":-9652.515625,"y":2702.0,"id":"164","attributes":{"lon":"-0.183118","lat":"51.515607"},"color":"rgb(0,0,0)","size":10.0},{"label":"Gwendwr Road, West Kensington","x":-14190.89453125,"y":-4190.0,"id":"770","attributes":{"lon":"-0.209121","lat":"51.491026"},"color":"rgb(0,0,0)","size":10.0},{"label":"Northumberland Avenue, Strand","x":717.5333862304688,"y":223.0,"id":"354","attributes":{"lon":"-0.123702","lat":"51.506767"},"color":"rgb(0,0,0)","size":10.0},{"label":"Princedale Road , Holland Park","x":-14080.06640625,"y":139.0,"id":"611","attributes":{"lon":"-0.208486","lat":"51.506465"},"color":"rgb(0,0,0)","size":10.0},{"label":"Lightermans Road, Millwall","x":18789.544921875,"y":-1943.0,"id":"475","attributes":{"lon":"-0.020157","lat":"51.499041"},"color":"rgb(0,0,0)","size":10.0},{"label":"Bishop\u0027s Bridge Road West, Bayswater","x":-10324.81640625,"y":2857.0,"id":"568","attributes":{"lon":"-0.18697","lat":"51.51616"},"color":"rgb(0,0,0)","size":10.0},{"label":"Thornfield House, Poplar","x":18187.58203125,"y":1105.0,"id":"567","attributes":{"lon":"-0.023606","lat":"51.509913"},"color":"rgb(0,0,0)","size":10.0},{"label":"Bourne Street, Belgravia","x":-4440.61279296875,"y":-4238.0,"id":"137","attributes":{"lon":"-0.153256","lat":"51.490856"},"color":"rgb(0,0,0)","size":10.0},{"label":"Southwick Street, Paddington","x":-7231.91748046875,"y":2799.0,"id":"265","attributes":{"lon":"-0.169249","lat":"51.515953"},"color":"rgb(0,0,0)","size":10.0},{"label":"Drury Lane, Covent Garden","x":976.36572265625,"y":2468.0,"id":"18","attributes":{"lon":"-0.122219","lat":"51.51477"},"color":"rgb(0,0,0)","size":10.0},{"label":"Ladbroke Grove Central, Ladbroke Grove","x":-13632.3896484375,"y":1585.0,"id":"560","attributes":{"lon":"-0.205921","lat":"51.511624"},"color":"rgb(0,0,0)","size":10.0},{"label":"Hop Exchange, The Borough","x":6290.1953125,"y":-377.0,"id":"194","attributes":{"lon":"-0.091773","lat":"51.504627"},"color":"rgb(0,0,0)","size":10.0},{"label":"Red Lion Square, Holborn","x":1516.7197265625,"y":3776.0,"id":"23","attributes":{"lon":"-0.119123","lat":"51.519435"},"color":"rgb(0,0,0)","size":10.0},{"label":"Southampton Street, Strand","x":1062.93408203125,"y":1326.0,"id":"388","attributes":{"lon":"-0.121723","lat":"51.510701"},"color":"rgb(0,0,0)","size":10.0},{"label":"Imperial Wharf Station, Sands End","x":-9660.71875,"y":-8775.0,"id":"780","attributes":{"lon":"-0.183165","lat":"51.474665"},"color":"rgb(0,0,0)","size":10.0},{"label":"Westferry DLR, Limehouse","x":17770.447265625,"y":934.0,"id":"510","attributes":{"lon":"-0.025996","lat":"51.509303"},"color":"rgb(0,0,0)","size":10.0},{"label":"Sumner Place, South Kensington","x":-8011.3818359375,"y":-4138.0,"id":"172","attributes":{"lon":"-0.173715","lat":"51.491211"},"color":"rgb(0,0,0)","size":10.0},{"label":"Putney Pier, Wandsworth","x":-15491.5146484375,"y":-10949.0,"id":"302","attributes":{"lon":"-0.216573","lat":"51.466907"},"color":"rgb(0,0,0)","size":10.0},{"label":"Chelsea Bridge, Pimlico","x":-3698.49853515625,"y":-5649.0,"id":"419","attributes":{"lon":"-0.149004","lat":"51.485821"},"color":"rgb(0,0,0)","size":10.0},{"label":"Waterloo Place, St. James\u0027s","x":-691.121826171875,"y":186.0,"id":"160","attributes":{"lon":"-0.131773","lat":"51.506633"},"color":"rgb(0,0,0)","size":10.0},{"label":"Belvedere Road 1, South Bank","x":2291.122314453125,"y":45.0,"id":"273","attributes":{"lon":"-0.114686","lat":"51.506133"},"color":"rgb(0,0,0)","size":10.0},{"label":"Bonny Street, Camden Town","x":-1926.81494140625,"y":9995.0,"id":"462","attributes":{"lon":"-0.138853","lat":"51.541603"},"color":"rgb(0,0,0)","size":10.0},{"label":"New Fetter Lane, Holborn","x":3460.318359375,"y":3213.0,"id":"546","attributes":{"lon":"-0.107987","lat":"51.517428"},"color":"rgb(0,0,0)","size":10.0},{"label":"Beaumont Street, Marylebone","x":-4109.5234375,"y":4498.0,"id":"242","attributes":{"lon":"-0.151359","lat":"51.522008"},"color":"rgb(0,0,0)","size":10.0},{"label":"Exhibition Road Museums 2, South Kensington","x":-8007.5419921875,"y":-2810.0,"id":"482","attributes":{"lon":"-0.173693","lat":"51.495948"},"color":"rgb(0,0,0)","size":10.0},{"label":"Sedding Street, Sloane Square","x":-5072.421875,"y":-3600.0,"id":"5","attributes":{"lon":"-0.156876","lat":"51.49313"},"color":"rgb(0,0,0)","size":10.0},{"label":"Jubilee Street, Stepney","x":13026.4677734375,"y":2806.0,"id":"450","attributes":{"lon":"-0.053177","lat":"51.515975"},"color":"rgb(0,0,0)","size":10.0},{"label":"Spencer Park, Wandsworth Common","x":-8181.72607421875,"y":-13481.0,"id":"637","attributes":{"lon":"-0.174691","lat":"51.45787"},"color":"rgb(0,0,0)","size":10.0},{"label":"Waterloo Station 1, Waterloo","x":2434.58837890625,"y":-545.0,"id":"374","attributes":{"lon":"-0.113864","lat":"51.504027"},"color":"rgb(0,0,0)","size":10.0},{"label":"LMU Commercial Road, Whitechapel","x":10774.818359375,"y":2511.0,"id":"200","attributes":{"lon":"-0.066078","lat":"51.514924"},"color":"rgb(0,0,0)","size":10.0},{"label":"Regency Street, Westminster","x":-769.836181640625,"y":-3900.0,"id":"267","attributes":{"lon":"-0.132224","lat":"51.49206"},"color":"rgb(0,0,0)","size":10.0},{"label":"Lord\u0027s, St. John\u0027s Wood","x":-7640.84814453125,"y":6431.0,"id":"363","attributes":{"lon":"-0.171592","lat":"51.5289"},"color":"rgb(0,0,0)","size":10.0},{"label":"Penfold Street, Marylebone","x":-7656.3818359375,"y":4746.0,"id":"402","attributes":{"lon":"-0.171681","lat":"51.522892"},"color":"rgb(0,0,0)","size":10.0},{"label":"Orbel Street, Battersea","x":-7399.64404296875,"y":-8812.0,"id":"679","attributes":{"lon":"-0.17021","lat":"51.474535"},"color":"rgb(0,0,0)","size":10.0},{"label":"Westbridge Road, Battersea","x":-7420.4130859375,"y":-7929.0,"id":"680","attributes":{"lon":"-0.170329","lat":"51.477684"},"color":"rgb(0,0,0)","size":10.0},{"label":"Kennington Lane Rail Bridge, Vauxhall","x":928.71826171875,"y":-5503.0,"id":"270","attributes":{"lon":"-0.122492","lat":"51.486343"},"color":"rgb(0,0,0)","size":10.0},{"label":"Orsett Terrace, Bayswater","x":-9756.8857421875,"y":3354.0,"id":"165","attributes":{"lon":"-0.183716","lat":"51.517932"},"color":"rgb(0,0,0)","size":10.0},{"label":"River Street , Clerkenwell","x":3114.219482421875,"y":6505.0,"id":"1","attributes":{"lon":"-0.10997","lat":"51.529163"},"color":"rgb(0,0,0)","size":10.0},{"label":"Mile End Park Leisure Centre, Mile End","x":16623.767578125,"y":4102.0,"id":"763","attributes":{"lon":"-0.032566","lat":"51.520597"},"color":"rgb(0,0,0)","size":10.0},{"label":"Stephendale Road, Sands End","x":-10914.0390625,"y":-10581.0,"id":"723","attributes":{"lon":"-0.190346","lat":"51.46822"},"color":"rgb(0,0,0)","size":10.0},{"label":"Elysium Place, Fulham","x":-13967.6669921875,"y":-9780.0,"id":"617","attributes":{"lon":"-0.207842","lat":"51.471079"},"color":"rgb(0,0,0)","size":10.0},{"label":"East Village, Queen Elizabeth Olympic Park","x":20573.62109375,"y":11321.0,"id":"784","attributes":{"lon":"-0.009935","lat":"51.546326"},"color":"rgb(0,0,0)","size":10.0},{"label":"Riverlight North, Nine Elms","x":-1450.3399658203125,"y":-6618.0,"id":"183","attributes":{"lon":"-0.136123","lat":"51.482362"},"color":"rgb(0,0,0)","size":10.0},{"label":"Westfield Eastern Access Road, Shepherd\u0027s Bush","x":-16027.6796875,"y":894.0,"id":"555","attributes":{"lon":"-0.219645","lat":"51.509159"},"color":"rgb(0,0,0)","size":10.0},{"label":"Imperial Road, Sands End","x":-10378.572265625,"y":-8642.0,"id":"738","attributes":{"lon":"-0.187278","lat":"51.475142"},"color":"rgb(0,0,0)","size":10.0},{"label":"Little Brook Green, Brook Green","x":-16764.73046875,"y":-2609.0,"id":"775","attributes":{"lon":"-0.223868","lat":"51.496664"},"color":"rgb(0,0,0)","size":10.0},{"label":"Bow Church Station, Bow","x":19043.31640625,"y":6226.0,"id":"495","attributes":{"lon":"-0.018703","lat":"51.528169"},"color":"rgb(0,0,0)","size":10.0},{"label":"Duke Street Hill, London Bridge","x":7077.51318359375,"y":93.0,"id":"732","attributes":{"lon":"-0.087262","lat":"51.506304"},"color":"rgb(0,0,0)","size":10.0},{"label":"Cadogan Close, Victoria Park","x":17256.44921875,"y":10140.0,"id":"692","attributes":{"lon":"-0.028941","lat":"51.542118"},"color":"rgb(0,0,0)","size":10.0},{"label":"Ilchester Place, Kensington","x":-13080.5166015625,"y":-1466.0,"id":"145","attributes":{"lon":"-0.202759","lat":"51.500743"},"color":"rgb(0,0,0)","size":10.0},{"label":"Aston Street, Stepney","x":15540.0908203125,"y":2813.0,"id":"461","attributes":{"lon":"-0.038775","lat":"51.516"},"color":"rgb(0,0,0)","size":10.0},{"label":"Cranmer Road, Stockwell","x":2852.24560546875,"y":-7392.0,"id":"827","attributes":{"lon":"-0.111471","lat":"51.479601"},"color":"rgb(0,0,0)","size":10.0},{"label":"Green Park Station, Mayfair","x":-2623.375732421875,"y":180.0,"id":"541","attributes":{"lon":"-0.142844","lat":"51.506613"},"color":"rgb(0,0,0)","size":10.0},{"label":"Harcourt Terrace, West Brompton","x":-10400.5634765625,"y":-5050.0,"id":"757","attributes":{"lon":"-0.187404","lat":"51.487958"},"color":"rgb(0,0,0)","size":10.0},{"label":"Walmer Road, Avondale","x":-14581.3251953125,"y":1158.0,"id":"442","attributes":{"lon":"-0.211358","lat":"51.510101"},"color":"rgb(0,0,0)","size":10.0},{"label":"Danvers Street, West Chelsea","x":-7725.67138671875,"y":-6561.0,"id":"610","attributes":{"lon":"-0.172078","lat":"51.482567"},"color":"rgb(0,0,0)","size":10.0},{"label":"Chepstow Villas, Notting Hill","x":-12870.2041015625,"y":1729.0,"id":"151","attributes":{"lon":"-0.201554","lat":"51.512136"},"color":"rgb(0,0,0)","size":10.0},{"label":"Stewart\u0027s Road, Wandsworth Road","x":-1644.420654296875,"y":-9209.0,"id":"714","attributes":{"lon":"-0.137235","lat":"51.473116"},"color":"rgb(0,0,0)","size":10.0},{"label":"Limburg Road, Clapham Junction","x":-6542.16357421875,"y":-12345.0,"id":"777","attributes":{"lon":"-0.165297","lat":"51.461923"},"color":"rgb(0,0,0)","size":10.0},{"label":"Hammersmith Town Hall, Hammersmith","x":-18542.697265625,"y":-3711.0,"id":"753","attributes":{"lon":"-0.234055","lat":"51.492736"},"color":"rgb(0,0,0)","size":10.0},{"label":"Westminster Bridge Road, Elephant \u0026 Castle","x":3473.23388671875,"y":-2127.0,"id":"548","attributes":{"lon":"-0.107913","lat":"51.498386"},"color":"rgb(0,0,0)","size":10.0},{"label":"Godliman Street, St. Paul\u0027s","x":5004.23681640625,"y":1826.0,"id":"48","attributes":{"lon":"-0.099141","lat":"51.512484"},"color":"rgb(0,0,0)","size":10.0},{"label":"Kennington Oval, Oval","x":2561.997314453125,"y":-6399.0,"id":"440","attributes":{"lon":"-0.113134","lat":"51.483145"},"color":"rgb(0,0,0)","size":10.0},{"label":"Hardwick Street, Clerkenwell","x":3446.18115234375,"y":6134.0,"id":"170","attributes":{"lon":"-0.108068","lat":"51.527842"},"color":"rgb(0,0,0)","size":10.0},{"label":"Kennington Cross, Kennington","x":2858.52880859375,"y":-4775.0,"id":"144","attributes":{"lon":"-0.111435","lat":"51.48894"},"color":"rgb(0,0,0)","size":10.0},{"label":"Wellington Row, Bethnal Green","x":10135.1552734375,"y":6241.0,"id":"533","attributes":{"lon":"-0.069743","lat":"51.528222"},"color":"rgb(0,0,0)","size":10.0},{"label":"Grosvenor Road, Pimlico","x":-2512.1982421875,"y":-5779.0,"id":"245","attributes":{"lon":"-0.142207","lat":"51.485357"},"color":"rgb(0,0,0)","size":10.0},{"label":"South Kensington Station, South Kensington","x":-8040.35400390625,"y":-3241.0,"id":"356","attributes":{"lon":"-0.173881","lat":"51.494412"},"color":"rgb(0,0,0)","size":10.0},{"label":"Surrey Lane, Battersea","x":-6867.318359375,"y":-8631.0,"id":"620","attributes":{"lon":"-0.16716","lat":"51.47518"},"color":"rgb(0,0,0)","size":10.0},{"label":"Bolsover Street, Fitzrovia","x":-2757.591552734375,"y":4921.0,"id":"28","attributes":{"lon":"-0.143613","lat":"51.523518"},"color":"rgb(0,0,0)","size":10.0},{"label":"Hampton Street, Walworth","x":4586.23046875,"y":-3869.0,"id":"152","attributes":{"lon":"-0.101536","lat":"51.49217"},"color":"rgb(0,0,0)","size":10.0},{"label":"Baylis Road, Waterloo","x":2986.985107421875,"y":-1269.0,"id":"272","attributes":{"lon":"-0.110699","lat":"51.501444"},"color":"rgb(0,0,0)","size":10.0},{"label":"Macclesfield Rd, St Lukes","x":5356.61865234375,"y":6578.0,"id":"351","attributes":{"lon":"-0.097122","lat":"51.529423"},"color":"rgb(0,0,0)","size":10.0},{"label":"Rochester Row, Westminster","x":-1337.7662353515625,"y":-2844.0,"id":"118","attributes":{"lon":"-0.135478","lat":"51.495827"},"color":"rgb(0,0,0)","size":10.0},{"label":"Alfreda Street, Battersea Park","x":-4030.809326171875,"y":-8667.0,"id":"726","attributes":{"lon":"-0.150908","lat":"51.47505"},"color":"rgb(0,0,0)","size":10.0},{"label":"Hatton Wall, Holborn","x":3282.46923828125,"y":4400.0,"id":"17","attributes":{"lon":"-0.109006","lat":"51.521661"},"color":"rgb(0,0,0)","size":10.0},{"label":"Copper Box Arena, Queen Elizabeth Olympic Park","x":18722.349609375,"y":10923.0,"id":"788","attributes":{"lon":"-0.020542","lat":"51.544909"},"color":"rgb(0,0,0)","size":10.0},{"label":"Tyers Gate, Bermondsey","x":7793.6220703125,"y":-1425.0,"id":"314","attributes":{"lon":"-0.083159","lat":"51.500889"},"color":"rgb(0,0,0)","size":10.0},{"label":"Ram Street, Wandsworth","x":-11231.5146484375,"y":-13576.0,"id":"766","attributes":{"lon":"-0.192165","lat":"51.457529"},"color":"rgb(0,0,0)","size":10.0},{"label":"Coomer Place, West Kensington","x":-12954.6787109375,"y":-6280.0,"id":"639","attributes":{"lon":"-0.202038","lat":"51.48357"},"color":"rgb(0,0,0)","size":10.0},{"label":"Bayley Street , Bloomsbury","x":-739.9910888671875,"y":3538.0,"id":"88","attributes":{"lon":"-0.132053","lat":"51.518587"},"color":"rgb(0,0,0)","size":10.0},{"label":"Pall Mall East, West End","x":-503.6734619140625,"y":505.0,"id":"233","attributes":{"lon":"-0.130699","lat":"51.50777"},"color":"rgb(0,0,0)","size":10.0},{"label":"Stainsby Road , Poplar","x":18194.73828125,"y":2652.0,"id":"716","attributes":{"lon":"-0.023565","lat":"51.515427"},"color":"rgb(0,0,0)","size":10.0},{"label":"St. Mary Axe, Aldgate","x":8229.779296875,"y":2315.0,"id":"263","attributes":{"lon":"-0.08066","lat":"51.514225"},"color":"rgb(0,0,0)","size":10.0},{"label":"Barbican Centre, Barbican","x":6219.8583984375,"y":3947.0,"id":"275","attributes":{"lon":"-0.092176","lat":"51.520044"},"color":"rgb(0,0,0)","size":10.0},{"label":"Fore Street, Guildhall","x":6586.55224609375,"y":3329.0,"id":"509","attributes":{"lon":"-0.090075","lat":"51.517842"},"color":"rgb(0,0,0)","size":10.0},{"label":"Bermondsey Station, Bermondsey","x":11229.8251953125,"y":-2236.0,"id":"845","attributes":{"lon":"-0.063471","lat":"51.497995"},"color":"rgb(0,0,0)","size":10.0},{"label":"Bromley High Street, Bow","x":19993.6484375,"y":6411.0,"id":"484","attributes":{"lon":"-0.013258","lat":"51.528828"},"color":"rgb(0,0,0)","size":10.0},{"label":"Blackfriars Station, St. Paul\u0027s","x":4317.1005859375,"y":1672.0,"id":"659","attributes":{"lon":"-0.103078","lat":"51.511934"},"color":"rgb(0,0,0)","size":10.0},{"label":"Risinghill Street, Angel","x":2798.140380859375,"y":7671.0,"id":"339","attributes":{"lon":"-0.111781","lat":"51.533319"},"color":"rgb(0,0,0)","size":10.0},{"label":"Lower Thames Street, Monument","x":7474.9248046875,"y":934.0,"id":"276","attributes":{"lon":"-0.084985","lat":"51.509301"},"color":"rgb(0,0,0)","size":10.0},{"label":"William Morris Way, Sands End","x":-9861.955078125,"y":-10413.0,"id":"628","attributes":{"lon":"-0.184318","lat":"51.468819"},"color":"rgb(0,0,0)","size":10.0},{"label":"Archbishop\u0027s Park, Waterloo","x":1800.859375,"y":-2167.0,"id":"641","attributes":{"lon":"-0.117495","lat":"51.498241"},"color":"rgb(0,0,0)","size":10.0},{"label":"Kings Gate House, Westminster","x":-1707.776123046875,"y":-2320.0,"id":"799","attributes":{"lon":"-0.137598","lat":"51.497698"},"color":"rgb(0,0,0)","size":10.0},{"label":"Great Dover Street, The Borough","x":6696.33349609375,"y":-2408.0,"id":"61","attributes":{"lon":"-0.089446","lat":"51.497382"},"color":"rgb(0,0,0)","size":10.0},{"label":"Southern Grove, Bow","x":16974.578125,"y":4927.0,"id":"467","attributes":{"lon":"-0.030556","lat":"51.523538"},"color":"rgb(0,0,0)","size":10.0},{"label":"Upcerne Road, West Chelsea","x":-9533.3095703125,"y":-7793.0,"id":"745","attributes":{"lon":"-0.182435","lat":"51.478169"},"color":"rgb(0,0,0)","size":10.0},{"label":"Beryl Road, Hammersmith","x":-16518.291015625,"y":-4998.0,"id":"686","attributes":{"lon":"-0.222456","lat":"51.488144"},"color":"rgb(0,0,0)","size":10.0},{"label":"Putney Bridge Station, Fulham","x":-14393.00390625,"y":-10415.0,"id":"607","attributes":{"lon":"-0.210279","lat":"51.468814"},"color":"rgb(0,0,0)","size":10.0},{"label":"Trebovir Road, Earl\u0027s Court","x":-11930.51953125,"y":-4238.0,"id":"158","attributes":{"lon":"-0.19617","lat":"51.490853"},"color":"rgb(0,0,0)","size":10.0},{"label":"Foley Street, Fitzrovia","x":-2211.652587890625,"y":3705.0,"id":"311","attributes":{"lon":"-0.140485","lat":"51.519181"},"color":"rgb(0,0,0)","size":10.0},{"label":"Smugglers Way, Wandsworth","x":-11154.1962890625,"y":-12581.0,"id":"665","attributes":{"lon":"-0.191722","lat":"51.461083"},"color":"rgb(0,0,0)","size":10.0},{"label":"Santos Road, Wandsworth","x":-12739.6533203125,"y":-13708.0,"id":"767","attributes":{"lon":"-0.200806","lat":"51.457059"},"color":"rgb(0,0,0)","size":10.0},{"label":"Brook Green South, Brook Green","x":-15357.298828125,"y":-3259.0,"id":"634","attributes":{"lon":"-0.215804","lat":"51.494347"},"color":"rgb(0,0,0)","size":10.0},{"label":"Speakers\u0027 Corner 1, Hyde Park","x":-5604.57275390625,"y":1775.0,"id":"407","attributes":{"lon":"-0.159925","lat":"51.512301"},"color":"rgb(0,0,0)","size":10.0},{"label":"Hartington Road, Stockwell","x":163.9149932861328,"y":-7877.0,"id":"676","attributes":{"lon":"-0.126874","lat":"51.47787"},"color":"rgb(0,0,0)","size":10.0},{"label":"Sackville Street, Mayfair","x":-1925.5931396484375,"y":1143.0,"id":"318","attributes":{"lon":"-0.138846","lat":"51.510048"},"color":"rgb(0,0,0)","size":10.0},{"label":"Northdown Street, King\u0027s Cross","x":1478.8460693359375,"y":7039.0,"id":"593","attributes":{"lon":"-0.11934","lat":"51.531066"},"color":"rgb(0,0,0)","size":10.0},{"label":"Osiers Road, Wandsworth","x":-12378.1962890625,"y":-12696.0,"id":"685","attributes":{"lon":"-0.198735","lat":"51.46067"},"color":"rgb(0,0,0)","size":10.0},{"label":"Christian Street, Whitechapel","x":11111.3173828125,"y":1957.0,"id":"489","attributes":{"lon":"-0.06415","lat":"51.51295"},"color":"rgb(0,0,0)","size":10.0},{"label":"Finnis Street, Bethnal Green","x":12074.5654296875,"y":5220.0,"id":"722","attributes":{"lon":"-0.058631","lat":"51.524583"},"color":"rgb(0,0,0)","size":10.0},{"label":"Porchester Place, Paddington","x":-6518.95068359375,"y":2461.0,"id":"169","attributes":{"lon":"-0.165164","lat":"51.514746"},"color":"rgb(0,0,0)","size":10.0},{"label":"Eagle Wharf Road, Hoxton","x":6049.86328125,"y":7738.0,"id":"574","attributes":{"lon":"-0.09315","lat":"51.53356"},"color":"rgb(0,0,0)","size":10.0},{"label":"Strata, Elephant \u0026 Castle","x":4884.33251953125,"y":-3596.0,"id":"409","attributes":{"lon":"-0.099828","lat":"51.493146"},"color":"rgb(0,0,0)","size":10.0},{"label":"Snowsfields, London Bridge","x":7711.06787109375,"y":-1070.0,"id":"706","attributes":{"lon":"-0.083632","lat":"51.502153"},"color":"rgb(0,0,0)","size":10.0},{"label":"Burdett Road, Mile End","x":17222.06640625,"y":2868.0,"id":"460","attributes":{"lon":"-0.029138","lat":"51.516196"},"color":"rgb(0,0,0)","size":10.0},{"label":"Pitfield Street North,Hoxton","x":7910.38427734375,"y":8305.0,"id":"465","attributes":{"lon":"-0.08249","lat":"51.53558"},"color":"rgb(0,0,0)","size":10.0},{"label":"Ashmole Estate, Oval","x":1771.8868408203125,"y":-6530.0,"id":"654","attributes":{"lon":"-0.117661","lat":"51.482678"},"color":"rgb(0,0,0)","size":10.0},{"label":"Swan Street, The Borough","x":6117.58203125,"y":-1591.0,"id":"295","attributes":{"lon":"-0.092762","lat":"51.500296"},"color":"rgb(0,0,0)","size":10.0},{"label":"Jubilee Crescent, Cubitt Town","x":20991.279296875,"y":-3530.0,"id":"447","attributes":{"lon":"-0.007542","lat":"51.493381"},"color":"rgb(0,0,0)","size":10.0},{"label":"Warwick Row, Westminster","x":-2643.62158203125,"y":-2235.0,"id":"316","attributes":{"lon":"-0.14296","lat":"51.497998"},"color":"rgb(0,0,0)","size":10.0},{"label":"Black Prince Road, Vauxhall","x":1865.9600830078125,"y":-4199.0,"id":"310","attributes":{"lon":"-0.117122","lat":"51.490994"},"color":"rgb(0,0,0)","size":10.0},{"label":"Ferndale Road, Brixton","x":2100.0087890625,"y":-11758.0,"id":"832","attributes":{"lon":"-0.115781","lat":"51.464019"},"color":"rgb(0,0,0)","size":10.0},{"label":"Disraeli Road, Putney","x":-15416.814453125,"y":-12433.0,"id":"708","attributes":{"lon":"-0.216145","lat":"51.46161"},"color":"rgb(0,0,0)","size":10.0},{"label":"Millennium Hotel, Mayfair","x":-4068.857421875,"y":1388.0,"id":"366","attributes":{"lon":"-0.151126","lat":"51.510919"},"color":"rgb(0,0,0)","size":10.0},{"label":"Woodstock Street, Mayfair","x":-3401.26904296875,"y":2281.0,"id":"106","attributes":{"lon":"-0.147301","lat":"51.514105"},"color":"rgb(0,0,0)","size":10.0},{"label":"Palace Gate, Kensington Gardens","x":-9876.2666015625,"y":-1102.0,"id":"404","attributes":{"lon":"-0.1844","lat":"51.502042"},"color":"rgb(0,0,0)","size":10.0},{"label":"Colet Gardens, Hammersmith","x":-15477.5517578125,"y":-4171.0,"id":"608","attributes":{"lon":"-0.216493","lat":"51.491093"},"color":"rgb(0,0,0)","size":10.0},{"label":"Queensdale Road, Shepherd\u0027s Bush","x":-15409.658203125,"y":174.0,"id":"736","attributes":{"lon":"-0.216104","lat":"51.50659"},"color":"rgb(0,0,0)","size":10.0},{"label":"Pembridge Villas, Notting Hill","x":-12166.8369140625,"y":1434.0,"id":"337","attributes":{"lon":"-0.197524","lat":"51.511084"},"color":"rgb(0,0,0)","size":10.0},{"label":"Victoria Park Road, Hackney Central","x":12854.552734375,"y":8542.0,"id":"719","attributes":{"lon":"-0.054162","lat":"51.536424"},"color":"rgb(0,0,0)","size":10.0},{"label":"Putney Rail Station, Putney","x":-15483.3115234375,"y":-12683.0,"id":"694","attributes":{"lon":"-0.216526","lat":"51.460717"},"color":"rgb(0,0,0)","size":10.0},{"label":"Kennington Road  , Vauxhall","x":2953.82373046875,"y":-2875.0,"id":"235","attributes":{"lon":"-0.110889","lat":"51.495718"},"color":"rgb(0,0,0)","size":10.0},{"label":"Eversholt Street , Camden Town","x":-1567.1025390625,"y":7583.0,"id":"131","attributes":{"lon":"-0.136792","lat":"51.533005"},"color":"rgb(0,0,0)","size":10.0},{"label":"Union Street, The Borough","x":5116.6357421875,"y":-640.0,"id":"196","attributes":{"lon":"-0.098497","lat":"51.503688"},"color":"rgb(0,0,0)","size":10.0},{"label":"Fulham Broadway, Walham Green","x":-11572.0283203125,"y":-7299.0,"id":"737","attributes":{"lon":"-0.194116","lat":"51.479932"},"color":"rgb(0,0,0)","size":10.0},{"label":"Alderney Street, Pimlico","x":-2256.3330078125,"y":-5022.0,"id":"185","attributes":{"lon":"-0.140741","lat":"51.488057"},"color":"rgb(0,0,0)","size":10.0},{"label":"Lambeth Road, Vauxhall","x":1717.258056640625,"y":-3109.0,"id":"139","attributes":{"lon":"-0.117974","lat":"51.494881"},"color":"rgb(0,0,0)","size":10.0},{"label":"Handyside Street, King\u0027s Cross","x":524.6744995117188,"y":8771.0,"id":"806","attributes":{"lon":"-0.124807","lat":"51.53724"},"color":"rgb(0,0,0)","size":10.0},{"label":"Harriet Street, Knightsbridge","x":-5502.470703125,"y":-1607.0,"id":"368","attributes":{"lon":"-0.15934","lat":"51.500241"},"color":"rgb(0,0,0)","size":10.0},{"label":"Hereford Road, Bayswater","x":-11462.2470703125,"y":2177.0,"id":"29","attributes":{"lon":"-0.193487","lat":"51.513735"},"color":"rgb(0,0,0)","size":10.0},{"label":"Twig Folly Bridge, Mile End","x":14847.369140625,"y":6831.0,"id":"531","attributes":{"lon":"-0.042744","lat":"51.530326"},"color":"rgb(0,0,0)","size":10.0},{"label":"Park Lane, Mayfair","x":-4014.9267578125,"y":-153.0,"id":"733","attributes":{"lon":"-0.150817","lat":"51.505426"},"color":"rgb(0,0,0)","size":10.0},{"label":"Goswell Road (City Uni), Finsbury","x":4675.2421875,"y":6248.0,"id":"344","attributes":{"lon":"-0.101026","lat":"51.528246"},"color":"rgb(0,0,0)","size":10.0},{"label":"Page Street, Westminster","x":45.23259735107422,"y":-3362.0,"id":"558","attributes":{"lon":"-0.127554","lat":"51.493978"},"color":"rgb(0,0,0)","size":10.0},{"label":"Rainville Road, Hammersmith","x":-16761.939453125,"y":-6234.0,"id":"644","attributes":{"lon":"-0.223852","lat":"51.483732"},"color":"rgb(0,0,0)","size":10.0},{"label":"Upper Grosvenor Street, Mayfair","x":-4877.11962890625,"y":1166.0,"id":"389","attributes":{"lon":"-0.155757","lat":"51.51013"},"color":"rgb(0,0,0)","size":10.0},{"label":"Westbourne Park Road, Portobello","x":-12774.3857421875,"y":3337.0,"id":"758","attributes":{"lon":"-0.201005","lat":"51.51787"},"color":"rgb(0,0,0)","size":10.0},{"label":"Stratford Station, Stratford","x":21468.1015625,"y":10049.0,"id":"790","attributes":{"lon":"-0.00481","lat":"51.541793"},"color":"rgb(0,0,0)","size":10.0},{"label":"Taviton Street, Bloomsbury","x":-584.3076782226562,"y":5351.0,"id":"19","attributes":{"lon":"-0.131161","lat":"51.52505"},"color":"rgb(0,0,0)","size":10.0},{"label":"Lancaster Gate , Bayswater","x":-9050.376953125,"y":1594.0,"id":"524","attributes":{"lon":"-0.179668","lat":"51.511654"},"color":"rgb(0,0,0)","size":10.0},{"label":"Gloucester Terrace, Bayswater","x":-10521.689453125,"y":3351.0,"id":"176","attributes":{"lon":"-0.188098","lat":"51.517919"},"color":"rgb(0,0,0)","size":10.0},{"label":"Bath Street, St. Luke\u0027s","x":6451.8125,"y":5587.0,"id":"119","attributes":{"lon":"-0.090847","lat":"51.525893"},"color":"rgb(0,0,0)","size":10.0},{"label":"Scala Street, Fitzrovia","x":-1435.67919921875,"y":3910.0,"id":"13","attributes":{"lon":"-0.136039","lat":"51.519914"},"color":"rgb(0,0,0)","size":10.0},{"label":"Timber Lodge, Queen Elizabeth Olympic Park","x":19743.54296875,"y":11455.0,"id":"787","attributes":{"lon":"-0.014691","lat":"51.546805"},"color":"rgb(0,0,0)","size":10.0},{"label":"Farm Street, Mayfair","x":-3427.099853515625,"y":948.0,"id":"382","attributes":{"lon":"-0.147449","lat":"51.509351"},"color":"rgb(0,0,0)","size":10.0},{"label":"Borough Road, Elephant \u0026 Castle","x":4777.5185546875,"y":-1983.0,"id":"92","attributes":{"lon":"-0.10044","lat":"51.498898"},"color":"rgb(0,0,0)","size":10.0},{"label":"Cadogan Place, Knightsbridge","x":-5286.9228515625,"y":-3175.0,"id":"211","attributes":{"lon":"-0.158105","lat":"51.494645"},"color":"rgb(0,0,0)","size":10.0},{"label":"Vereker Road, West Kensington","x":-14235.75,"y":-4592.0,"id":"633","attributes":{"lon":"-0.209378","lat":"51.489591"},"color":"rgb(0,0,0)","size":10.0},{"label":"Chelsea Green, Chelsea","x":-6703.43212890625,"y":-4277.0,"id":"220","attributes":{"lon":"-0.166221","lat":"51.490714"},"color":"rgb(0,0,0)","size":10.0},{"label":"Notting Hill Gate Station, Notting Hill","x":-11974.5009765625,"y":948.0,"id":"225","attributes":{"lon":"-0.196422","lat":"51.509353"},"color":"rgb(0,0,0)","size":10.0},{"label":"Houghton Street, Strand","x":1928.44287109375,"y":2145.0,"id":"256","attributes":{"lon":"-0.116764","lat":"51.51362"},"color":"rgb(0,0,0)","size":10.0},{"label":"London Zoo,  The Regent\u0027s Park","x":-4969.27294921875,"y":8377.0,"id":"271","attributes":{"lon":"-0.156285","lat":"51.535836"},"color":"rgb(0,0,0)","size":10.0},{"label":"London Street, Paddington","x":-8010.85791015625,"y":2565.0,"id":"752","attributes":{"lon":"-0.173712","lat":"51.515117"},"color":"rgb(0,0,0)","size":10.0},{"label":"Albert Gate, Hyde Park","x":-5348.18359375,"y":-846.0,"id":"303","attributes":{"lon":"-0.158456","lat":"51.502953"},"color":"rgb(0,0,0)","size":10.0},{"label":"Derry Street, Kensington","x":-11108.818359375,"y":-1292.0,"id":"133","attributes":{"lon":"-0.191462","lat":"51.501364"},"color":"rgb(0,0,0)","size":10.0},{"label":"Monument Street, Monument","x":7477.54248046875,"y":1029.0,"id":"587","attributes":{"lon":"-0.08497","lat":"51.50964"},"color":"rgb(0,0,0)","size":10.0},{"label":"Sardinia Street, Holborn","x":1736.6312255859375,"y":2590.0,"id":"372","attributes":{"lon":"-0.117863","lat":"51.515208"},"color":"rgb(0,0,0)","size":10.0},{"label":"Green Street, Mayfair","x":-5170.16015625,"y":1768.0,"id":"138","attributes":{"lon":"-0.157436","lat":"51.512276"},"color":"rgb(0,0,0)","size":10.0},{"label":"Fashion Street, Whitechapel","x":9490.255859375,"y":3480.0,"id":"236","attributes":{"lon":"-0.073438","lat":"51.51838"},"color":"rgb(0,0,0)","size":10.0},{"label":"Warwick Square, Pimlico","x":-2462.630859375,"y":-4518.0,"id":"178","attributes":{"lon":"-0.141923","lat":"51.489856"},"color":"rgb(0,0,0)","size":10.0},{"label":"Albert Embankment, Vauxhall","x":873.9149169921875,"y":-4356.0,"id":"100","attributes":{"lon":"-0.122806","lat":"51.490435"},"color":"rgb(0,0,0)","size":10.0},{"label":"Westbourne Grove, Bayswater","x":-10895.5390625,"y":2680.0,"id":"105","attributes":{"lon":"-0.19024","lat":"51.515529"},"color":"rgb(0,0,0)","size":10.0},{"label":"All Saints Church, Portobello","x":-13054.162109375,"y":2902.0,"id":"661","attributes":{"lon":"-0.202608","lat":"51.51632"},"color":"rgb(0,0,0)","size":10.0},{"label":"Turquoise Island, Notting Hill","x":-12745.23828125,"y":2339.0,"id":"379","attributes":{"lon":"-0.200838","lat":"51.514311"},"color":"rgb(0,0,0)","size":10.0},{"label":"Grosvenor Crescent, Belgravia","x":-4429.79150390625,"y":-1295.0,"id":"207","attributes":{"lon":"-0.153194","lat":"51.501352"},"color":"rgb(0,0,0)","size":10.0},{"label":"Abingdon Villas, Kensington","x":-12118.1416015625,"y":-2407.0,"id":"38","attributes":{"lon":"-0.197245","lat":"51.497387"},"color":"rgb(0,0,0)","size":10.0},{"label":"Dickens Square, Borough","x":5916.69482421875,"y":-2574.0,"id":"317","attributes":{"lon":"-0.093913","lat":"51.496791"},"color":"rgb(0,0,0)","size":10.0},{"label":"Palissy Street, Shoreditch","x":9400.0224609375,"y":5700.0,"id":"322","attributes":{"lon":"-0.073955","lat":"51.526293"},"color":"rgb(0,0,0)","size":10.0},{"label":"Aquatic Centre, Queen Elizabeth Olympic Park","x":20473.265625,"y":9809.0,"id":"785","attributes":{"lon":"-0.01051","lat":"51.54094"},"color":"rgb(0,0,0)","size":10.0},{"label":"Westminster Pier, Westminster","x":696.4149169921875,"y":-1250.0,"id":"818","attributes":{"lon":"-0.123823","lat":"51.501513"},"color":"rgb(0,0,0)","size":10.0},{"label":"George Row, Bermondsey","x":10268.1494140625,"y":-2071.0,"id":"840","attributes":{"lon":"-0.068981","lat":"51.498585"},"color":"rgb(0,0,0)","size":10.0},{"label":"St. John\u0027s Road, Clapham Junction","x":-7064.8896484375,"y":-12214.0,"id":"764","attributes":{"lon":"-0.168292","lat":"51.462392"},"color":"rgb(0,0,0)","size":10.0},{"label":"Queen Mary\u0027s, Mile End","x":15085.78125,"y":4638.0,"id":"491","attributes":{"lon":"-0.041378","lat":"51.522507"},"color":"rgb(0,0,0)","size":10.0},{"label":"Sidney Road, Stockwell","x":1534.3475341796875,"y":-10306.0,"id":"830","attributes":{"lon":"-0.119022","lat":"51.469202"},"color":"rgb(0,0,0)","size":10.0},{"label":"Southwark Station 2, Southwark","x":4020.39453125,"y":-540.0,"id":"421","attributes":{"lon":"-0.104778","lat":"51.504044"},"color":"rgb(0,0,0)","size":10.0},{"label":"Cheapside, Bank","x":6086.51513671875,"y":2243.0,"id":"427","attributes":{"lon":"-0.09294","lat":"51.51397"},"color":"rgb(0,0,0)","size":10.0},{"label":"Southampton Place, Holborn","x":1131.8746337890625,"y":3263.0,"id":"162","attributes":{"lon":"-0.121328","lat":"51.517606"},"color":"rgb(0,0,0)","size":10.0},{"label":"Sea Containers, South Bank","x":3663.474609375,"y":578.0,"id":"839","attributes":{"lon":"-0.106823","lat":"51.508033"},"color":"rgb(0,0,0)","size":10.0},{"label":"Queensway, Kensington Gardens","x":-10400.21484375,"y":1217.0,"id":"224","attributes":{"lon":"-0.187402","lat":"51.51031"},"color":"rgb(0,0,0)","size":10.0},{"label":"Dock Street, Wapping","x":10411.2666015625,"y":1070.0,"id":"237","attributes":{"lon":"-0.068161","lat":"51.509786"},"color":"rgb(0,0,0)","size":10.0},{"label":"Walworth Square, Walworth","x":5462.03662109375,"y":-4106.0,"id":"725","attributes":{"lon":"-0.096518","lat":"51.491327"},"color":"rgb(0,0,0)","size":10.0},{"label":"St. Chad\u0027s Street, King\u0027s Cross","x":1193.8338623046875,"y":6756.0,"id":"4","attributes":{"lon":"-0.120973","lat":"51.530059"},"color":"rgb(0,0,0)","size":10.0},{"label":"Breams Buildings, Holborn","x":2798.6640625,"y":2795.0,"id":"84","attributes":{"lon":"-0.111778","lat":"51.515937"},"color":"rgb(0,0,0)","size":10.0},{"label":"Abbey Orchard Street, Westminster","x":-748.5431518554688,"y":-2200.0,"id":"108","attributes":{"lon":"-0.132102","lat":"51.498125"},"color":"rgb(0,0,0)","size":10.0},{"label":"Temple Gardens, Temple","x":3401.849853515625,"y":1405.0,"id":"842","attributes":{"lon":"-0.108322","lat":"51.510981"},"color":"rgb(0,0,0)","size":10.0},{"label":"Hortensia Road, West Brompton","x":-10028.6337890625,"y":-6786.0,"id":"739","attributes":{"lon":"-0.185273","lat":"51.481765"},"color":"rgb(0,0,0)","size":10.0},{"label":"Blythe Road, Olympia","x":-14955.1748046875,"y":-2536.0,"id":"525","attributes":{"lon":"-0.2135","lat":"51.496927"},"color":"rgb(0,0,0)","size":10.0},{"label":"Cheshire Street, Bethnal Green","x":10949.7001953125,"y":5023.0,"id":"445","attributes":{"lon":"-0.065076","lat":"51.52388"},"color":"rgb(0,0,0)","size":10.0},{"label":"Tate Modern, Bankside","x":5062.53076171875,"y":211.0,"id":"810","attributes":{"lon":"-0.098807","lat":"51.506725"},"color":"rgb(0,0,0)","size":10.0},{"label":"William IV Street, Strand","x":534.7974243164062,"y":979.0,"id":"64","attributes":{"lon":"-0.124749","lat":"51.509462"},"color":"rgb(0,0,0)","size":10.0},{"label":"Boston Place, Marylebone","x":-6018.7392578125,"y":4639.0,"id":"45","attributes":{"lon":"-0.162298","lat":"51.522511"},"color":"rgb(0,0,0)","size":10.0},{"label":"Ansell House, Stepney","x":12816.5048828125,"y":3940.0,"id":"500","attributes":{"lon":"-0.05438","lat":"51.520019"},"color":"rgb(0,0,0)","size":10.0},{"label":"St. John\u0027s Wood Road, St. John\u0027s Wood","x":-8175.09375,"y":5981.0,"id":"286","attributes":{"lon":"-0.174653","lat":"51.527294"},"color":"rgb(0,0,0)","size":10.0},{"label":"Bridge Avenue, Hammersmith","x":-17680.6796875,"y":-3893.0,"id":"730","attributes":{"lon":"-0.229116","lat":"51.492084"},"color":"rgb(0,0,0)","size":10.0},{"label":"Lansdowne Walk, Ladbroke Grove","x":-13413.3505859375,"y":1015.0,"id":"543","attributes":{"lon":"-0.204666","lat":"51.509591"},"color":"rgb(0,0,0)","size":10.0},{"label":"Percival Street, Finsbury","x":4468.9443359375,"y":5660.0,"id":"544","attributes":{"lon":"-0.102208","lat":"51.526153"},"color":"rgb(0,0,0)","size":10.0},{"label":"Roscoe Street, St. Luke\u0027s","x":5738.49658203125,"y":4763.0,"id":"52","attributes":{"lon":"-0.094934","lat":"51.522954"},"color":"rgb(0,0,0)","size":10.0},{"label":"Russell Square Station, Bloomsbury","x":644.4041137695312,"y":4893.0,"id":"77","attributes":{"lon":"-0.124121","lat":"51.523418"},"color":"rgb(0,0,0)","size":10.0},{"label":"Broomhouse Lane, Parsons Green","x":-12448.0087890625,"y":-10526.0,"id":"656","attributes":{"lon":"-0.199135","lat":"51.468418"},"color":"rgb(0,0,0)","size":10.0},{"label":"The Tennis Courts, The Regent\u0027s Park","x":-4476.74072265625,"y":5440.0,"id":"315","attributes":{"lon":"-0.153463","lat":"51.525367"},"color":"rgb(0,0,0)","size":10.0},{"label":"Bedford Way, Bloomsbury","x":-98.40799713134766,"y":4965.0,"id":"287","attributes":{"lon":"-0.128377","lat":"51.523673"},"color":"rgb(0,0,0)","size":10.0},{"label":"Great Marlborough St, Soho","x":-1724.53125,"y":2439.0,"id":"159","attributes":{"lon":"-0.137694","lat":"51.514667"},"color":"rgb(0,0,0)","size":10.0},{"label":"Newby Place, Poplar","x":20141.12890625,"y":820.0,"id":"530","attributes":{"lon":"-0.012413","lat":"51.508896"},"color":"rgb(0,0,0)","size":10.0},{"label":"Horseferry Road, Westminster","x":-461.61102294921875,"y":-3127.0,"id":"221","attributes":{"lon":"-0.130458","lat":"51.494816"},"color":"rgb(0,0,0)","size":10.0},{"label":"Berry Street, Clerkenwell","x":4855.35986328125,"y":4735.0,"id":"246","attributes":{"lon":"-0.099994","lat":"51.522853"},"color":"rgb(0,0,0)","size":10.0},{"label":"Sancroft Street, Vauxhall","x":2209.091796875,"y":-4624.0,"id":"86","attributes":{"lon":"-0.115156","lat":"51.489479"},"color":"rgb(0,0,0)","size":10.0},{"label":"Murray Grove , Hoxton","x":6637.6904296875,"y":6989.0,"id":"63","attributes":{"lon":"-0.089782","lat":"51.53089"},"color":"rgb(0,0,0)","size":10.0},{"label":"Cloudesley Road, Angel","x":3279.1533203125,"y":7976.0,"id":"93","attributes":{"lon":"-0.109025","lat":"51.534408"},"color":"rgb(0,0,0)","size":10.0},{"label":"Blythe Road West, Shepherd\u0027s Bush","x":-16402.2265625,"y":-1764.0,"id":"657","attributes":{"lon":"-0.221791","lat":"51.49968"},"color":"rgb(0,0,0)","size":10.0},{"label":"Frampton Street, Paddington","x":-8255.9033203125,"y":4875.0,"id":"238","attributes":{"lon":"-0.175116","lat":"51.523353"},"color":"rgb(0,0,0)","size":10.0},{"label":"Campden Hill Road, Notting Hill","x":-12425.1455078125,"y":172.0,"id":"212","attributes":{"lon":"-0.199004","lat":"51.506584"},"color":"rgb(0,0,0)","size":10.0},{"label":"Warwick Avenue Station, Maida Vale","x":-9779.5751953125,"y":4872.0,"id":"47","attributes":{"lon":"-0.183846","lat":"51.523344"},"color":"rgb(0,0,0)","size":10.0},{"label":"City Road, Angel","x":4824.9912109375,"y":6836.0,"id":"365","attributes":{"lon":"-0.100168","lat":"51.530344"},"color":"rgb(0,0,0)","size":10.0},{"label":"Wardour Street, Soho","x":-940.3548583984375,"y":1835.0,"id":"192","attributes":{"lon":"-0.133201","lat":"51.512515"},"color":"rgb(0,0,0)","size":10.0},{"label":"Paddington Street, Marylebone","x":-4692.8125,"y":4098.0,"id":"56","attributes":{"lon":"-0.154701","lat":"51.520583"},"color":"rgb(0,0,0)","size":10.0},{"label":"Felsham Road, Putney","x":-15324.8349609375,"y":-11543.0,"id":"693","attributes":{"lon":"-0.215618","lat":"51.464786"},"color":"rgb(0,0,0)","size":10.0},{"label":"Vincent Street, Pimlico","x":-368.5849609375,"y":-3616.0,"id":"426","attributes":{"lon":"-0.129925","lat":"51.493072"},"color":"rgb(0,0,0)","size":10.0},{"label":"Sloane Avenue, Knightsbridge","x":-6995.42578125,"y":-3585.0,"id":"163","attributes":{"lon":"-0.167894","lat":"51.493184"},"color":"rgb(0,0,0)","size":10.0},{"label":"Sadlers Sports Centre, Finsbury","x":4943.4990234375,"y":5300.0,"id":"78","attributes":{"lon":"-0.099489","lat":"51.524868"},"color":"rgb(0,0,0)","size":10.0},{"label":"Pindar Street, Liverpool Street","x":7735.32763671875,"y":4202.0,"id":"41","attributes":{"lon":"-0.083493","lat":"51.520955"},